Name,Owner,Address,Latitude,Longitude,Year
Blue Boar,Barnard Thos.,Sparrow corner  London ,55.6059526,-4.4736545,1839
Three Crowns,Straughan John,9 Richmond Street Haymarket London ,55.9452782,-3.1835988,1839
Kings Head,Pearson Geo,Cannon Alley St Pauls London ,51.4412013,-2.6014559,1839
Lord Clive,Morton James,Duke Street Manchester Square London ,53.4756381,-2.2548111,1839
Lord Keith,Haynes John Brook,York Street Gloucester Place London ,51.8682451,-2.2340576,1839
Man in the Moon,Dunn William,Little Vine Street Piccadilly London ,53.4771243,-2.2310505,1839
Queens Head,Jones John,3 Albemarle Street Piccadilly London ,53.4771243,-2.2310505,1839
Saddlers Arms,Husher Charles,14 Swallow Street Piccadilly London ,53.4771243,-2.2310505,1839
Griffin,Robinson Hy,28 Halfmoon Street Piccadilly London ,53.4771243,-2.2310505,1839
White Lion,Paine John,Derby Street Piccadilly London ,53.4771243,-2.2310505,1839
Queens Head,Cudling Robert,5 Darkhouse lane  London ,52.5492978,-2.0880064,1839
Tilt Boat,Winn John,4 Darkhouse Lane  London ,52.5492978,-2.0880064,1839
Rose & Crown,Bates John,60 Dorset Street Salisbury Square London ,51.0811258,-1.7918059,1839
Three Compasses,Bennett Henry,24 Orchard Street Oxford Street London ,53.8757874,-1.7076312,1839
Coach & Horses,Bennett Henry,17 Little Compton Street  London ,51.9906046,-1.6953892,1839
Duke of York,Griffiths William,York Street Portman Square London ,53.8281246,-1.6877649,1839
Pontefract Castle,Watts David,1 Southampton Row New Road London ,50.9367268,-1.5765115,1839
Duke of York,Freeman Thomas,28 Stockbridge Terrace  London ,51.1148673,-1.4864728,1839
Prince Regent,Martin William,Walbrook Row East Road London ,52.8987301,-1.4337617,1839
Kings Arms,Ward William,5 Castle Street Leicester Square London ,52.6333269,-1.1405779,1839
George,Taylor Wmith Jobson,45 Castle Street Leicester Square London ,52.6331812,-1.1404412,1839
Horse and Groom,Heath William,51 Castle Street Leicester Square London ,52.6331812,-1.1404412,1839
Monmouth Head,Prested F O,40 Castle Street Leicester Square London ,52.6331812,-1.1404412,1839
Sun and Thirteen cantons,Brown ____,21 Castle Street Leicester Square London ,52.6331886,-1.1404407,1839
Duke of Sussex,Swallow R L,18 Pierpont Row  London ,52.9493379,-1.1403903,1839
Cambrian,Morgan John,Castle street Leicester Square London ,52.6327501,-1.1398941,1839
Black Lion,Reed Edward,31 New Montague Street  London ,53.3041574,-0.9307921,1839
Fleece,Laidley Thomas,27 Little Windmill Street  London ,51.6994928,-0.5031443,1839
Grapes,Sawyer Wm,19 Little Windmill Street  London ,51.6994928,-0.5031443,1839
Waggon & Horses,Shaw Thomas Benj,Hertford Road Kingsland Road London ,51.7452092,-0.4884561,1839
African Chief,Temple Jas,37 Wilstead Street  London ,52.0561514,-0.4606257,1839
Brewers Arms,Nares John,10 Morgans lane Borough London ,51.5247748,-0.4355423,1839
Dukes Head,Holmes Samuel,1 Lemon Street Borough London ,51.4456597,-0.4137326,1839
Constitution,Ellis Jno Thomas,White Street Borough London ,51.5051523,-0.390421,1839
Northumberland Arms,Snowing Chas,77 Well Street Oxford Street London ,51.5101356,-0.375544,1839
Boot,Webb William,47 Wells street Oxford street London ,51.5101356,-0.375544,1839
Tiger,Wright Zaccheus,24 Wells Street Oxford Street London ,51.5101356,-0.375544,1839
Red Lion,Beaumont Joseph,9 Little Guilford Street  London ,51.2252397,-0.3658517,1839
Three Compasses,Lockwood George,15 Little Guildford Street  London ,51.2252397,-0.3658517,1839
Stile,Hartshorn William,7 Barbican  London ,51.5204074,-0.3609703,1839
Red Cross,White Henry,33 Barbican  London ,51.5208554,-0.3606618,1839
Earl Grey,Thompson Thomas,Dorchester Place New North Road London ,51.5567002,-0.3602999,1839
Bricklayers Arms,Thornton Alexander,Dorchester place New North road London ,51.5567002,-0.3602999,1839
Wheat Sheaf,Jones John,46 Holywell Street Strand London ,51.7494346,-0.340734,1839
Tower,Shaw Rt,Gilderts Buildings Westminster Road London ,51.5076643,-0.3392455,1839
Coach & Horses,Franklin John,Norfolk Street Park Lane London ,51.4262344,-0.3350284,1839
Equestrian Coffee House,Kerschner George and Joseph,Surrey Theatre  London ,51.2946356,-0.3286939,1839
Lord Wellington,Pacy Hny,York Street London Road London ,51.2394216,-0.3249302,1839
Blakeneys Head,Tunnicliffe William George,40 Ruffords Buildings  London ,51.5807823,-0.3212762,1839
Dr Butlers Head,Larby William Adams,5 Whiterose Court Coleman Court London ,51.6104975,-0.3142063,1839
Star & Garter,Bland Jennet,Old Palace Yard  London ,51.4609854,-0.3097975,1839
Blue Posts Tavern,Hitchcock John,13 Cork street Bond street London ,51.5120166,-0.3058562,1839
Coach & Horses,Pain Thomas,51 Bruton Street Bond Street London ,51.5120166,-0.3058562,1839
Duke of Albemarle,Lee William,6 Stafford Street Bond Street London ,51.5120166,-0.3058562,1839
Crown,Pope Samuel,Pauls Alley St Pauls London ,51.4843827,-0.3055409,1839
Stag,Swayne Rs,Portland Terrace Wandsworth Road London ,51.4621481,-0.3052826,1839
Kings Arms,Stroud Abraham,1 Park Place Liverpool Road London ,51.5059867,-0.3025277,1839
Admiral Nagle,Reilly John,3 Bambridge Street  London ,51.4285622,-0.2983353,1839
Three Tuns,Franklin Samuel,4 Bridgewater Gardens  London ,51.6001865,-0.2884228,1839
Huntsman and Hounds,Masons Thomas,Park Place East Street London ,51.4990099,-0.2822172,1839
Hermit,Debenham Samuel,Bedford Square Commercial Road east London ,51.5337215,-0.2724846,1839
North Briton,Malchar John,1 Bedford Square Commercial Road east London ,51.5320984,-0.2717875,1839
Seven Stars,Husband Thomas Matt,22 Rosemary Lane  London ,51.4686637,-0.2701355,1839
Blue Anchor,Parker Eleanor,48 Rosemary Lane  London ,51.4686637,-0.2701355,1839
Coopers Arms,Hall Edward,78 Rosemary Lane  London ,51.4686637,-0.2701355,1839
George IV,Roberts John,43 Rosemary Lane  London ,51.4686637,-0.2701355,1839
Swan,Wighton Peter,58 Rosemary Lane  London ,51.4686637,-0.2701355,1839
Windmill,Hebard Alfred,55 Rosemary Lane  London ,51.4686637,-0.2701355,1839
King of Prussia,Ratcliff Jas,29 Somerset Place Rosemary Lane London ,51.4684535,-0.2700392,1839
Horns and Horse Shoe,Skipping Robert,3 Cable Street Rosemary Lane London ,51.4684535,-0.2700392,1839
Duke of Sussex,Clark Charles,10 Rosemary Lane  London ,51.4682776,-0.2696909,1839
Bedford Arms,Heath R,1 Bedford Row Kent Road London ,51.4983685,-0.2689637,1839
Cottage of Content,Knowles Richard,1 Park Place kent Road London ,51.4983685,-0.2689637,1839
Three Goats Heads,Watkins John,Belmont Place Wandsworth Road London ,51.493695,-0.2630047,1839
Crown,Letchford james,St Dunstans Passage  London ,51.5140789,-0.2614642,1839
Brown Bear,Pitcher Charles,14 Seacoal lane  London ,51.519863,-0.2607936,1839
New George,Saunders John,18 Drury Court  London ,51.5546414,-0.2585762,1839
Welch Harp,Letford Thomas,23 Aylesbury Street  London ,51.5615113,-0.2584528,1839
Two Brewers,Cutmore George,26 Aylesbury Street  London ,51.5614041,-0.2584198,1839
Bulls Head,Baker Fras.,16 Aylesbury street  London ,51.5615823,-0.2580196,1839
White Hart,Camper John,4 Aylesbury Street  London ,51.5618937,-0.257525,1839
White Hart,Simms Joseph,Parkside Kensington London ,51.5077751,-0.2565045,1839
Horse Shoe and Magpie,Hewett William,1 Bedford Street Bedford Row London ,51.4972748,-0.2555971,1839
One Tun,Jefferson Thos,Charles Court Strand London ,51.4700739,-0.2546558,1839
Bird cage,Jones Edward,Barnet Street  London ,51.6312087,-0.2539729,1839
Goat,Bowker Samuel,2 High Street Kennington London ,51.5374537,-0.2492115,1839
Wheat Sheaf,Bradshaw Jos,24 High Street Camden Town London ,51.5369292,-0.2488359,1839
Bedford Arms,Sadler Thomas,21 Charlotte Street Bedford Square London ,51.4772391,-0.2475797,1839
Wheat Sheaf,Oldfield Thomas,Worcester Street Borough London ,51.6271316,-0.2474674,1839
Kings Arms,Savage William,Davis Place Chelsea London ,51.5056498,-0.2468853,1839
Britannia,Temple Chas.,83 High street Camden town London ,51.536034,-0.2459717,1839
Duke of York,Groves James,8 Shepherd Street Oxford Street London ,51.5366627,-0.2458293,1839
Portsmouth Arms,Pavis John,4 Shepherd Street Oxford Street London ,51.5366627,-0.2458293,1839
Mother Black Cap,Roberts Edward,91 High Street Camden Town London ,51.536251,-0.2457734,1839
King on Horseback,Bale Richard,118 High Street Borough London ,51.535877,-0.2447412,1839
Mother Red Cap,Butler Thomas,High Street Camden Town London ,51.5356352,-0.2441262,1839
Castle,Jekyll Thos.,6 Bullen’s court Strand London ,51.7421892,-0.2438998,1839
Bagnigge Wells,Hamilton Jno,Clarks Place  London ,51.6299997,-0.2432048,1839
New Southampton Arms,Carter Edward,168 High Street Camden Town London ,51.5349073,-0.2431076,1839
Red Cross,Fielder Hannah,200 High Street Borough London ,51.5341324,-0.2423263,1839
Black Bull,Withers William,206 High Street Borough London ,51.5340083,-0.2419449,1839
Ben Jonsons Head,Cozens Chas,2 Westmoreland Buildings  London ,51.4770486,-0.2408749,1839
Black Horse & Crown,Thompson William,235 High Street Borough London ,51.5332903,-0.2406916,1839
Dolphin,Russell Edward,15 Hyde Street Bloomsbury London ,51.6072142,-0.2388301,1839
Green Man & Still,Riley James,Coppice Row  London ,51.4527565,-0.2387433,1839
Bulls Head,Barr Henry,26 Hyde street Bloomsbury London ,51.6072569,-0.2384279,1839
Green Man,Medcalfe Stephen,Cambridge Road  London ,51.412932,-0.2364707,1839
Lord Wellington,Ornage Hy,Three Colts Lane Cambridge Road London ,51.412932,-0.2364707,1839
Carpenters Arms,Halfpenny William,34 Cambridge road  London ,51.4131848,-0.2340634,1839
Cross Keys Tap,Starr George,128 Wool Street City London ,51.4217196,-0.2337815,1839
Red Lion,Smith William,4 Cambridge Road  London ,51.414304,-0.2315024,1839
Queens Head,Moss Thomas,1 Cambridge Road  London ,51.4147343,-0.2309239,1839
Three Colts,Clark John,1 Cambridge Road  London ,51.4147343,-0.2309239,1839
Gentleman & Porter,Matthews Samuel James,16 Nicholl Square  London ,51.57755,-0.2291815,1839
Horse and Groom,Woolley Daniel,60 King Street Borough London ,51.4925624,-0.2289725,1839
Coopers Arms,Collyer Charles,19 Bridge Row  London ,51.4917472,-0.2287842,1839
George IV,Walter Charles,12 Portsmouth Road  London ,51.4489989,-0.2285146,1839
Angel,Hardwick Thos & Geo,45 King Street Borough London ,51.4927055,-0.2271972,1839
Northumberland Arms,Greenwood William,Bagnigge Wells Road  London ,51.5013285,-0.2263231,1839
Union Tavern,Curtis John,Baker Street Bagnigge Wells Road London ,51.5013285,-0.2263231,1839
Kings Arms,Vousden Elizabeth,5 King Street Borough London ,51.4927478,-0.2252781,1839
Horse & Sacks,Moss Mary,25 Harrow Road  London ,51.5294126,-0.2218434,1839
Golden Key,Row Thos,20 Bell Street Edgware London ,51.5861969,-0.2194042,1839
Cock & Neptune,Taylor Peter,71 Parsons Street Ratcliff London ,51.4557289,-0.2183826,1839
Rose & Crown,Roberts John,64 Parson Street Ratcliff London ,51.4557289,-0.2183826,1839
Blue Anchor,Sanders Joseph,Parson street Ratcliff London ,51.4556898,-0.2180711,1839
Red Bull,Webster James,20 St Anns Court  London ,51.5088608,-0.215738,1839
Devonshire Arms,Hardy L,4 Middle Row Knightsbridge London ,51.5257667,-0.2116906,1839
Marquess of Granby,Glover Jno,Middle Row Knightsbridge London ,51.5259674,-0.2116715,1839
Bricklayers Arms,Scull William,54 Park street Oxford street London ,51.5187052,-0.2116259,1839
Blue Posts,Thomas Edw.,Grosvenor mews Bond street London ,51.4628254,-0.2112914,1839
Three Cranes,Wells John,1 Park Place Mile End Road London ,51.4953405,-0.2093126,1839
Pine Apple,Moore Thomas,3 St Georges Road  London ,51.420965,-0.2078944,1839
Regalia,Mackenzie Benj,11 Augustus Square  London ,51.4448578,-0.2076422,1839
Red Cow,Taylor Thomas,9 Park Place Mile End Road London ,51.2413074,-0.2059067,1839
Plough,Tyrrell William,Notting Hill  London ,51.5110287,-0.205389,1839
Castle,Lane William,Notting hill  London ,51.5110287,-0.205389,1839
Coach & Horses,Drinkwater Joseph,Notting Hill  London ,51.5110287,-0.205389,1839
Wheat Sheaf,Bliss James,137 St Albans Place  London ,51.6592684,-0.2053656,1839
Sovereign,Collingford R,34 Munster Street  London ,51.4731281,-0.2044227,1839
Brunswick Arms,Schnackenberg Stoffer,Hooper Square  London ,51.4561878,-0.2023442,1839
Red Lion & Key,Brent Grace,23 Mill Lane Borough London ,51.5511035,-0.2018831,1839
Prince of Wales,Cross John,22 Great Barlow Street Marylebone London ,51.5486771,-0.2009818,1839
Rising Sun,Dawson Wm,12 Charles Street Grosvenor Square London ,51.4142089,-0.2004733,1839
Malpas Arms,Chisholm Robert,7 Charles Street Grosvenor Square London ,51.4142276,-0.2002109,1839
Running Footman,James James,5 Charles Street Grosvenor Square London ,51.4142452,-0.2001507,1839
Black Dog,Haskell Philip,Denmark Street St Georges London ,51.5337037,-0.2000773,1839
Pembroke Arms,Gregory William,Pembroke Square Kensington London ,51.4965031,-0.1989589,1839
Artichoke,Gray Arthur,High Street Kensington London ,51.4997655,-0.1964995,1839
Civet cat,Cornell George,High Street Kensington London ,51.4997655,-0.1964995,1839
Coach & Horses,Jones Owen,High Street Kensington London ,51.4997655,-0.1964995,1839
Prince of Orange,Heavens Frederick,Phillip Street St Georges East London ,51.4958178,-0.1962096,1839
George,Pollin John,Church Street Kensington London ,51.5056169,-0.1941979,1839
Northumberland Arms,Johnstone James,Holland Street  London ,51.5028687,-0.1938831,1839
Kensington Arms,Janes James,Newland Street Kensington London ,51.5010095,-0.1932794,1839
Warwick Arms,Basley Wm,Kensington  London ,51.5010095,-0.1932794,1839
Greyhound,Hurren Benjamin,Kensington Square  London ,51.5010095,-0.1932794,1839
Star & Garter,Coston Charles,Newland Place Kensington London ,51.5010095,-0.1932794,1839
Marlborough Head,Harrison J,23 Green Walk Holland Street London ,51.5028833,-0.1930953,1839
White Bear,Seaborn Elizabeth,30 Park Street Oxford Street London ,51.5352409,-0.1923433,1839
Duke of Cambridge,Sinclair Duncan,Mile End Gates Mile End Road London ,51.5515338,-0.1922765,1839
Holland Arms,Dalton Edw,Holland Place Kensington London ,51.5034094,-0.192076,1839
Catherine Wheel,Charnley Thomas,11 Church Street Kensington London ,51.5029001,-0.1917594,1839
North Pole,Trovey William,Church Row St Georges East London ,51.4795135,-0.1910763,1839
Duke of Sussex,Scarlett Wm,55 High Street Kensington London ,51.5019807,-0.1898319,1839
Wheat Sheaf,Drinkwater Jas,53 High Street Kensington London ,51.5019454,-0.1895607,1839
Rising Sun,Walpole J,26 High Street Knightsbridge London ,51.5025761,-0.1894276,1839
Brown Bear,Lloyd Thos.,30 High row Knightsbridge London ,51.5025498,-0.1893539,1839
Cock,Thurston jas,1 Upper North Street Chelsea London ,51.5065244,-0.1889157,1839
King of Prussia,Bawcomb John,27 High Street Kensington London ,51.5022454,-0.1886125,1839
Life Guardsman,Byers Thomas,27 High Street Knightsbridge London ,51.5022482,-0.1886096,1839
Queens Arms,Jones John,21 High Row Knightsbridge London ,51.5022488,-0.1883933,1839
Kings Head,Neat Simon,24 High Road Knightsbridge London ,51.5023283,-0.1883081,1839
Red Lion,Lovelock Henry,21 Basing Lane  London ,51.5936078,-0.1882956,1839
Rose & Crown,Frazer J,16 High Road Knightsbridge London ,51.5027022,-0.1882164,1839
Hope,Bath Charles,Porchester Street  London ,51.517217,-0.1881328,1839
King and Queen,Samms James,11 High Street Kensington London ,51.5021205,-0.1880814,1839
Marquess of Granby,Woolfries Thos,9 HIgh Street Kensington London ,51.5021186,-0.1880066,1839
Three Tuns,Sibley Ham,3 High Street Kensington London ,51.5021973,-0.1876072,1839
Horse and Groom,Houseman Robert,21 St Martin Street  London ,51.433595,-0.187336,1839
Admiral Keppel,Watts Henry,Fulham Road  London ,51.481813,-0.1872572,1839
Bell & Horn,Rhoads John,Fulham Road  London ,51.481813,-0.1872572,1839
Fishing Smack,Atkins Robert,Cole Harbour  London ,51.4592188,-0.1859828,1839
City of London,Peeling Samuel,30 Dalby Terrace  London ,51.460752,-0.1859289,1839
Bayswater Tavern,Wall Wm,Bayswater  London ,51.5134339,-0.183801,1839
Black Lion,Simpson Charles,Bayswater  London ,51.5134339,-0.183801,1839
Kings Head,Adams Thomas,Bayswater  London ,51.5134339,-0.183801,1839
Swan,Ratcliffe Thomas,Bayswater  London ,51.5134339,-0.183801,1839
Angel and Crown,Harmby Geo,23 Gloucester Street Queens Square London ,51.4980681,-0.1834138,1839
Blakeneys Head,Witherington William james,33 Bartholomew Close  London ,51.4604728,-0.1830378,1839
Coach & Horses,Galwin Chris,71 Bartholomew Close  London ,51.4604728,-0.1830378,1839
White Hart & Fountain,Hawkins Martin,139 Rosemary Lane  London ,51.5960245,-0.182803,1839
British Lion,Collison Wm.,14 Bartholomew terrace  London ,51.4607362,-0.1826243,1839
Old Fountain,Bradley Thomas,132 Rosemary Lane  London ,51.5959335,-0.1826189,1839
Butchers Arms,Callow John,48 Peartree court  London ,51.4355491,-0.1821134,1839
Red Lion,Gosling Thomas,1 Lower Street Islington London ,51.5594932,-0.1812883,1839
Fox & Grapes,Simms Jno,18 Primrose Street Bishopsgate London ,51.5180717,-0.1809841,1839
George IV,Cardwell Robert,27 Queens Row Pimlico London ,51.4986108,-0.1800272,1839
Brown Bear,Wright Wm.,32 Devonshire street Queen’s square London ,51.5136582,-0.1798742,1839
Royal Clarence,Evans James,66 Westbourne Place Pimlico London ,51.5152549,-0.1794956,1839
Craven Head,Nicholson William,39 Craven Place Bayswater London ,51.5136013,-0.1791748,1839
Camden Arms,Carter William,Kensington gore  London ,51.500786,-0.1781517,1839
Perseverance,Hollowell Wm,20 William Street Hampstead Road London ,51.5556276,-0.1768743,1839
Rising Sun,Hall William,3 Lombard Street Chelsea London ,51.4729191,-0.1768098,1839
Bull and Gate,Beynon David,Craven place Kentish Town London ,51.5150228,-0.1766201,1839
Coal Hole,Rhoades William and John,Fountain Court Strand London ,51.4283673,-0.1764707,1839
Ship & Shovel,Corby Thomas,3 Craven Court Strand London ,51.51501,-0.1763536,1839
China Ship,Greengrass George,5 Little Hermitage Street  London ,51.5197691,-0.1762131,1839
Prince of Wales,Richardson James,Great Hermitage Street  London ,51.5197691,-0.1762131,1839
Sugar Loaf,Cowley Daniel,41 Great Hermitage Street  London ,51.5197691,-0.1762131,1839
Hand and Flower,Ploughman Francis,Kensington Grove  London ,51.5015884,-0.1761605,1839
Globe,Crowhurst Geo,Millman Row Chelsea London ,51.4825501,-0.1759432,1839
Britannia,Row Richard,Carnera street Chelsea London ,51.485093,-0.174936,1839
White Hart,Hickman Chas,17 Upper Closter Place Chelsea London ,51.485093,-0.174936,1839
Sussex Arms,Mills Geo,14 Westbourne Street  London ,51.5125135,-0.1749296,1839
Prince of Wales,Hughes R B,1 South parade Chelsea London ,51.4894315,-0.1741378,1839
Green Man,Harding Timothy,1 Beaufort Street Chelsea London ,51.4824738,-0.1741134,1839
Black Lion,Davies Jno & Benj,28 Church Street Chelsea London ,51.5213144,-0.1735079,1839
King and Queen,Weston Thos Richard,Paddington Green  London ,51.5201213,-0.1732667,1839
Grand Junction Arms,Rennison John,Praed Street  London ,51.5171041,-0.1728799,1839
Pavilion,Walsh Jno,Newcastle Street Strand London ,51.5204727,-0.1723599,1839
Fountain,Weller S Walker,Newcastle Street Strand London ,51.5204727,-0.1723599,1839
Ordnance Arms,Baldwin Wm,1 York Road  London ,51.4697847,-0.1723443,1839
Kings Head,Taylor John,King Street Mews Park Lane London ,51.5943878,-0.1718421,1839
Falcon,Harris Solomon,8 Falcon Square  London ,51.469647,-0.171749,1839
Falcon,Cooper Martha,10 Falcon Court Borough London ,51.469626,-0.1717454,1839
George IV,McGill Jas,9 George Buildings Old Street Road London ,51.4833779,-0.171492,1839
Load of Hay,Haynes George,62 Praed Street  London ,51.5179118,-0.1714114,1839
George,Elgee Edward,4 St Georges Place High Street London ,51.4242826,-0.1711453,1839
Tally Ho,Brown Peter,5 Junction Place Kentish Town London ,51.5178453,-0.1707931,1839
White Horse,Winter Sarah,62 Church Street Chelsea London ,51.5235008,-0.1707865,1839
Cross Keys,Wakefield Henry,1 Lawrence Street Chelsea London ,51.4835871,-0.1706115,1839
Grapes,Dickinson Geo,Brompton Grove Brompton London ,51.4978781,-0.1698742,1839
George,Mills George,38 Church Street Soho London ,51.5238507,-0.1697258,1839
George & Thirteen Cantons,Miles George,38 Church Street Soho London ,51.5238507,-0.1697258,1839
Oakley Arms,Gurney John,27 Oakley Street  London ,51.4854841,-0.1687277,1839
Carpenters Arms,Heaviside J. 18 Princes street,Edgware road  London ,51.5189412,-0.1685655,1839
Feathers,Edmonds Charles Joseph,42 Brown Street Edgware Road London ,51.5189412,-0.1685655,1839
Key,Row Thos,20 Bell Street Edgware Road London ,51.5189412,-0.1685655,1839
Britannia,Smith Charles,26 Brown street Edgware road London ,51.5189412,-0.1685655,1839
Fountain,Lancaster Hy,94 Praed Street Edgware Road London ,51.5189412,-0.1685655,1839
Red Lion,Mullins John & William,Edgware Road  London ,51.5189412,-0.1685655,1839
Magpie & Stump,Golding Thos,34 Cheyne Walk Chelsea London ,51.4836056,-0.1679207,1839
George IV,Tye Edward,Montpelier Terrace  London ,51.5003094,-0.1676863,1839
Lord Nelson,Harrison Anthony A,10 Manor Place Chelsea London ,51.4875595,-0.1676368,1839
Jolly Angler,Norris Timothy,Chapel Row Kentish Town London ,51.519627,-0.1676355,1839
Black Bull,Peddle Jane,Little Chapel street Westminster London ,51.519627,-0.1676355,1839
Kings Arms,Judd James,Old Chapel Row Kentish Town London ,51.519627,-0.1676355,1839
Masons Arms,West samuel,18 Titchborne Street  London ,51.514672,-0.1674552,1839
Black Horse,Reid James,5 Titchborne Street  London ,51.5145779,-0.1673124,1839
Lord Hill,Dallen Jesse,Manor Street Chelsea London ,51.4868864,-0.1671903,1839
Cobhams Head,Hickman Jno,Cobham Row  London ,51.454322,-0.1671513,1839
Horse Shoe,Baldwin Thomas,Titchborne Street  London ,51.5144483,-0.1671416,1839
Bricklayers Arms,Whitehead Thos.,11 Chapel court Borough London ,51.5920246,-0.1669368,1839
Sun,Harper Joseph,40 Chapel Street Pimlico London ,51.5196821,-0.1668024,1839
Globe,Reeder Richard & Co,65 Lisson Grove N  London ,51.5232049,-0.1666861,1839
Pontefract Castle,Watts David,48 Chapel Street Lisson grove London ,51.5198949,-0.166408,1839
Yorkshire Grey,Watson John Chas,14 Cheyne Walk Chelsea London ,51.4840293,-0.1654753,1839
Coach & Horses,Quye John,Flood Street Westminster London ,51.4862206,-0.1653445,1839
King Alfred,Hibble Charles,11 Lisson Grove North  London ,51.5218823,-0.1651063,1839
Green Man,Lowe Richard,134 Edgware Road  London ,51.5165786,-0.1648992,1839
Geneva Arms,Redkison William,3 Hayes Court Soho London ,51.5228373,-0.1647702,1839
Noahs Ark,King William,16 Upper Lisson Street  London ,51.5216614,-0.1647436,1839
Brazen Head,Smeed Ths.,1 Upper Lisson street  London ,51.5215749,-0.1647286,1839
Sun,Gurney Henry,6 Upper Lisson Street  London ,51.5214763,-0.164625,1839
Kings Head,Wordley Edward,22 Nutford Place  London ,51.5165039,-0.1646012,1839
Artichoke,Smith William,18 Cambridge Road  London ,51.4738215,-0.1645251,1839
Two Brewers,Buskell Thos,Queens Buildings Knightsbridge London ,51.4991195,-0.1644394,1839
Olive Branch,Beasley Frederick,58 Crawford Street  London ,51.5189138,-0.1644142,1839
Coach & Horses,Clayton Thomas,118 Edgware Road  London ,51.5162723,-0.1642706,1839
Castle,Bulter John,36 Shouldham street  London ,51.5185036,-0.1642006,1839
Harcourt Arms,Toombs Hy,32 Harcourt Street  London ,51.5195437,-0.1641306,1839
Kings Arms,Pratt Thomas Wills,108 Edgware Road  London ,51.5159056,-0.1638201,1839
Star & Garter,Salmon John,94 Edgware Road  London ,51.5156455,-0.1634396,1839
Sovereign,Jarmain Thomas,Taunton Place Park Road London ,51.5266229,-0.1632072,1839
Crown,Chapman Susannah,84 Edgware Road  London ,51.5154103,-0.1631276,1839
Blue Anchor,Banter edward,92 York street Westminster London ,51.5199064,-0.1630239,1839
Three Crowns,Neale Thos,4 Royal Hospital Row Chelsea London ,51.4849934,-0.1628638,1839
Coach & Horses,Vincent Jas,4 Hospital Row Chelsea London ,51.4849934,-0.1628638,1839
Duke of York,Pearce Jeremiah,9 Royal Hospital Row  London ,51.4851389,-0.1628537,1839
Bell,Stone William,Smith Street  London ,51.4885783,-0.1628004,1839
Phoenix,Rich William,22 Smith Street Chelsea London ,51.4886169,-0.1627111,1839
Fleece,Page Eliza mary,Well Court Queen Street London ,51.621248,-0.1627046,1839
Harrow,Wright Robert,21 Primrose Hill  London ,51.5427894,-0.1627045,1839
Adam & Eve,Bowen William,82 York street Westminster London ,51.5199861,-0.1626634,1839
General Eliott,Denbigh John,17 Hospital Row Chelsea London ,51.4853266,-0.1626191,1839
Bulls Head,Durrant James,71 York street Westminster London ,51.519759,-0.162606,1839
Plasterers Arms,Philips John Rouse,77 Seymour Street  London ,51.5140928,-0.1623916,1839
Snow Shoes,Tingey Joseph,21 Royal Hospital Row  London ,51.4854219,-0.1623355,1839
Royal Hospital,Cockerton Jos,23 Royal Hospital Row Chelsea London ,51.48547,-0.1622783,1839
White Horse,Pearcey Jas,17 St Georges Place Knightsbridge London ,51.5012054,-0.1622753,1839
Dukes Head,Eastward William,Reeves Mews Grosvenor Square London ,51.4134132,-0.1622245,1839
Bricklayers Arms,Wighton Chas.,43 Mount street Berkeley square London ,51.5149978,-0.1621509,1839
Kings Head and Eight Bells,Spenceley William,45 Cheyne Walk Chelsea London ,51.485865,-0.1620796,1839
Grapes,Richardson Haigh,28 London Road  London ,51.4193081,-0.1620692,1839
Duke of Wellington,Jones Thomas,94 Crawford Street  London ,51.5192556,-0.1619003,1839
Swan,Standard Henry,49 Mount Street Berkeley Square London ,51.5151209,-0.1615393,1839
Old Swan,Gould daniel,63 Paradise Row Chelsea London ,51.4856544,-0.1615281,1839
Fulham Bridge,Vickress Henry,10 Brompton Road  London ,51.5012756,-0.1615056,1839
Hop Pole,Carruthers Wm,28 Edgware Road  London ,51.5141252,-0.1614035,1839
Black Horse,Cutler Edward,63 York Street Westminster London ,51.5200956,-0.1614009,1839
Greyhound,Read Geo,9 Henrietta Street Bryanstone Square London ,51.5186041,-0.1613346,1839
Elephant & Castle,Street Henry,Kings Road Camden Town London ,51.4908297,-0.1612429,1839
Oxford Arms,Bridge William,1 Seymour Place Camden Town London ,51.5145814,-0.1611206,1839
Fox and Hounds,Callow Christopher Richard,31 Paradise Row Chelsea London ,51.4852498,-0.1610727,1839
Boston Arms,Caslake George,Boston street Dorset square London ,51.5231425,-0.1608564,1839
Portland Arms,Pearce John,9 Milton Street Dorset Square London ,51.5231425,-0.1608564,1839
Duke of Cumberland,Green Robert,20 Bryanstone Street  London ,51.513896,-0.1607925,1839
Gloucester Arms,Faram Israel,5 Upper Park Place Regents Park London ,51.5495951,-0.1607283,1839
Green Dragon,Speed Rowland,21 Paradise Row Chelsea London ,51.4850337,-0.160647,1839
Coach & Horses,Hogg Thomas,York Street Westminster London ,51.5202643,-0.1605544,1839
Montague Arms,Veale George,Upper Montague Street  London ,51.5202643,-0.1605544,1839
Red Lion,Nolan Bridget,York Street St James London ,51.5202643,-0.1605544,1839
New Inn,Whatmore Edward,5 Edgware Road  London ,51.513593,-0.1605361,1839
Bell,Amos Thomas,59 Mount Street Berkeley Square London ,51.5153437,-0.1604726,1839
Sun,Gurney George,4 Sloane Street  London ,51.5013868,-0.1603916,1839
George & Dragon,Driver Thomas,17 Paradise Row Chelsea London ,51.4848064,-0.1603522,1839
Horse and Groom,Haynes John,8 John Street Edgware Road London ,51.513601,-0.1603269,1839
Portman Arms,Blake Hy,Upper Berkeley Street  London ,51.5154804,-0.159978,1839
Crown,Weeks Wm,35 York Street Westminster London ,51.5203188,-0.1595969,1839
Gloucester Tavern,Keep Luke Samuel,187 Sloane Street  London ,51.499949,-0.1595481,1839
Bricklayers Arms,Crouch Ann,22 Kingsgate street  London ,51.4915449,-0.1594121,1839
Coach Makers Arms,Taylor William,Bryanstone Street  London ,51.5141831,-0.1593855,1839
Assembly House,White Sarah,Gloucester Place Kentish Town London ,51.5208203,-0.1592457,1839
Gloucester Arms,Adams Matthew,Gloucester Place Kentish Town London ,51.5208203,-0.1592457,1839
Hope & Anchor,Hughes Hugh,Gloucester Place Camden Town London ,51.5208203,-0.1592457,1839
Grapes,Smith Edward,24 Primrose Hill  London ,51.5404441,-0.1592355,1839
Hertford Arms,Bax George,13 Little Grosvenor Street  London ,51.4955205,-0.1588929,1839
Red Lion,Barwick Henry,6 Fleet Lane  London ,51.5531744,-0.1586574,1839
Globe,Harris Thomas,22 York Place Marylebone London ,51.5208122,-0.158427,1839
Bakers Coffee House,Franklin Joseph,14 Old Quebec Street  London ,51.5142669,-0.158122,1839
Prince of Wales,Flower Edward,15 York street Westminster London ,51.5207094,-0.1580327,1839
Star & Garter,Smith George,26 Sloane Square  London ,51.4923521,-0.1580252,1839
Globe,James Henry,9 York Street Borough London ,51.5207704,-0.1577129,1839
Coronation Arms,Bingley M A,125 Upper Seymour Street  London ,51.5148502,-0.1576866,1839
Masons Arms,Carruthers Jas,14 Adam Street West Upper Seymour Street London ,51.5148502,-0.1576866,1839
Queens Head,Chipp John,20 Parkside Knightsbridge London ,51.5024602,-0.1576724,1839
Fox & Bull,Gray Wm,Parkside Knightsbridge London ,51.5024602,-0.1576724,1839
Punch Bowl,Allnutt William,4 Farm Street Berkeley Square London ,51.5152905,-0.1575983,1839
Bell,James William,6 York Street Westminster London ,51.5209164,-0.1575846,1839
Fountain,Thomas Jos,19 Lower Sloane Street Pimlico London ,51.4915756,-0.1573711,1839
Bee Hive,Dunnell John,126 Crawford Street  London ,51.5200434,-0.1573312,1839
Friend at Hand,Thomspon Wm. Elizabeth Street,Sloane Street  London ,51.4907209,-0.1570958,1839
Rose & Crown,Weston Jno,1 Turks Row Lower Sloane Street London ,51.4907209,-0.1570958,1839
Barley Mow,Enock Mary,8 Dorset Street Portman Square London ,51.5156214,-0.1568636,1839
Caledonian Arms,Cross John,20 Princes street Portman Square London ,51.5156214,-0.1568636,1839
St Andrew,Davies Joseph,George Street Portman Square London ,51.5156214,-0.1568636,1839
Seymour Arms,Fuller John,9 Seymour Place Portman Square London ,51.5156214,-0.1568636,1839
Wheat Sheaf,Hodges Thomas,17 Dorset Street Portman Square London ,51.5156214,-0.1568636,1839
Worcester Arms,Maudy Henry,George Street Portman Square London ,51.5156214,-0.1568636,1839
City of Hereford,Burke Philip,King Street Portman Square London ,51.5156214,-0.1568636,1839
Cleveland Arms,Hodges Joseph,Montague Street Portman Square London ,51.5156214,-0.1568636,1839
Prince Regent,Gandar Chas,23 Seymour Place Portman Square London ,51.5156214,-0.1568636,1839
Stag,Coomber Wm,29 Dorset Street Portman Square London ,51.5156214,-0.1568636,1839
Wilton Arms,Kerridge Geo,10 Kinnerton Street  London ,51.5000221,-0.1567247,1839
Kings Arms,Betts James,51 Sloane Square Chelsea London ,51.4927561,-0.1565314,1839
Woodman,Skelton William,11 D'Oyley Street Chelsea London ,51.4945395,-0.1565308,1839
Bedford Arms,Coppin Joseph,1 Pont Street Pimlico London ,51.4973582,-0.1564264,1839
Turks Head,White James,10 Motcomb Street  London ,51.4996472,-0.156391,1839
Canteen,Howard Jas.,Barracks Portman street London ,51.5145227,-0.1563481,1839
Apollo,Gurney Arthur,28 Paddington Street  London ,51.5204933,-0.1557897,1839
Volunter,Hodges Ebenezer,28 Upper Baker Street  London ,51.5178858,-0.155366,1839
Coach Makers Arms,Robbins John,Belgrave Mews  London ,51.4979862,-0.1550616,1839
St Lukes Head,Goode William,Blackburn Mews Upper Brook Street London ,51.5113849,-0.1548946,1839
Castle,Ewins Saml.,4 Shepherd’s court Upper Brook street London ,51.5113849,-0.1548946,1839
Vine,Robinson Wm,Fitzroy Terrace Kentish Town London ,51.5399209,-0.1547668,1839
Wallaces Head,Hart George,Blandford Street  London ,51.5182912,-0.1547393,1839
Westmoreland Arms,Wood Thomas,2 George Street Baker Street London ,51.5166291,-0.1546906,1839
Three Johns,Brady James,3 Little Parke Street Westminster London ,51.5108692,-0.1546572,1839
Royal Standard,Ramsway Charles,1 Upper Dorset Street  London ,51.5198727,-0.1545627,1839
Kings Arms,Richards Thomas Bailey,8 Green Bank St Georges East London ,51.5128531,-0.1545263,1839
George & Bull,Plumb Edward,67 Orchard Street Westminster London ,51.5148453,-0.1542591,1839
Kings Arms,Coneybeare John,48 Orchard Street Westminster London ,51.5148453,-0.1542591,1839
Kings Head,Gallon Sarah,52 Orchard Street Westminster London ,51.5148453,-0.1542591,1839
White Horse,Poole Benj,62 Orchard Street Westminster London ,51.5148453,-0.1542591,1839
Regents Arms,Tarr Nathaniel,York Terrace Regents Park London ,51.5233766,-0.154259,1839
Mechanics Institution Tavern,Goldspink Thomas,29 Circus Street Marylebone London ,51.5225413,-0.1539409,1839
Marlborough Head,Rolls John,24 North Audley Street  London ,51.5133584,-0.1538461,1839
Greyhound,Peirse William James,8 Upper Grange Road  London ,51.5769663,-0.1537589,1839
Old Pitts Head,Lomas Wm,20 Paddington Street  London ,51.5207952,-0.1536308,1839
New Crown and Cushion,Smith Abel,55 Mount Street Lambeth London ,51.5091893,-0.1535607,1839
Vernons Head,Clarke George Wood,32 North Audley Street  London ,51.5126902,-0.1535423,1839
Three Stags,Gaskarth Harriet,9 Walsingham Place Lambeth London ,51.4545402,-0.1535017,1839
Old Crown and Cushion,Pottinger Thos,63 Mount Street Lambeth London ,51.5091975,-0.1534309,1839
Globe,Graham John,43 North Audley Street  London ,51.512237,-0.1532704,1839
York Minster,Speck John,8 North Audley Street  London ,51.5127413,-0.1531624,1839
Nottingham Arms,Dymes John,Nottingham Street Marylebone London ,51.521317,-0.153076,1839
Old Black Horse,Roberts William,400 Oxford Street  London ,51.5146301,-0.1528271,1839
Old Cheshire Cheese,Simpson Thomas,16 Mount Pleasant  London ,51.6498401,-0.1526536,1839
Bedford Arms,Kerridge Jas,13 South Street Marylebone London ,51.5082034,-0.152639,1839
Pelham Arms,Chandler Thos,18 George Street  London ,51.5179389,-0.1525332,1839
Adam & Eve,Fox William,6 Duke Street Chelsea London ,51.5159946,-0.1525139,1839
New London Bridge Tavern,Wallis Thomas,1 Duke Street Borough London ,51.5163502,-0.1524729,1839
Robin Hood,Sizer William Paul,1 Duke Street Westminster London ,51.5163502,-0.1524729,1839
Three Tuns,Sneezum Charles,429 Oxford Street  London ,51.5139644,-0.1524018,1839
George IV,Upperton Samuel,3 Duke Street Lisson Grove London ,51.5162476,-0.1522575,1839
White Hart,Hardy Getge,14 Duke Street Chelsea London ,51.5158141,-0.1522136,1839
Rising Sun,Sargent Henry,79 High Stret Marylebone London ,51.5208465,-0.1521472,1839
Fortune of War,Hall Henry,92 east Street Marylebone London ,51.5199629,-0.1521236,1839
White Horse,Bishop Joseph,50 South Audley Street  London ,51.509963,-0.1520786,1839
Lord Tyrawley,White George,71 High Street Marylebone London ,51.521496,-0.152038,1839
Queens Head,Long Samuel,93 High Street Marylebone London ,51.51991,-0.1520193,1839
Nell Gwynne,Watson William,1 Grosvenor Row Pimlico London ,51.5017253,-0.1519322,1839
Black Horse,Temple Richard,109 High Street Marylebone London ,51.518942,-0.1518769,1839
Nags Head,Burgess William,37 South Audley Street  London ,51.5098427,-0.1517181,1839
Merlins Cave,Edwards Richard,64 South Audley Street  London ,51.5088502,-0.1517116,1839
Marquess of Granby,Harrison George,28 South Audley Street  London ,51.5093034,-0.1516641,1839
Rose of Normandy,Thorp Benjamin Martin,32 High Street Marylebone London ,51.5202578,-0.1516553,1839
Sun and Sportsman,Bowdidge James,64 High Street Marylebone London ,51.5221077,-0.1516101,1839
Windsor Castle,Flowers Jane Brooks,33 Park Terrace Regents park London ,51.5379718,-0.1515892,1839
Waterloo Arms,Gledhill John William,50 High Street Marylebone London ,51.52162,-0.151588,1839
Marylebone Coffee House,Burgar John,34 East Street Marylebone London ,51.520317,-0.1515702,1839
Shepherd & Flock,Minton John,27 High Street Marylebone London ,51.5198652,-0.1515581,1839
Horse and Groom,Ward Joseph,George Yard Duke Street London ,51.5145231,-0.1515463,1839
York Arms,Allingham George,54 East Street Marylebone London ,51.5217881,-0.1515458,1839
Carved Lion,Venier Stephen,30 South street South Audley street London ,51.5093636,-0.1515239,1839
Angel,Haycock Justinian,Thayer street  London ,51.517679,-0.1514677,1839
Feathers,Powell Charles,50 Duke Street St James London ,51.5140024,-0.1513022,1839
Albemarle Arms,Braithwaite Samuel,South Audley Street  London ,51.5084201,-0.1512623,1839
Marquess of Wellington,Pallett John,South Stret Lambeth London ,51.5084201,-0.1512623,1839
Duke of Wellington,Thirst Edward,South Street Chelsea London ,51.5084201,-0.1512623,1839
Royal Exchange,Dunn William,Adams mews South Audley Street London ,51.5084201,-0.1512623,1839
Horse and Groom,Cook Thomas,24 Mount Street Lambeth London ,51.5098477,-0.1512003,1839
Bird in Hand,Fairlam Richard,396 Oxford Street  London ,51.5143383,-0.1511986,1839
Queens Head,Hodson Henry,412 Oxford Street  London ,51.5141971,-0.1510112,1839
Mischief,Cranch Richard,414 Oxford Street  London ,51.5141971,-0.1510112,1839
Union,Dymes Daniel,26 Marylebone Street  London ,51.5195982,-0.1509711,1839
Crown,Robertson Alexander,25 Marylebone Street  London ,51.5195982,-0.1509711,1839
North Pole,Hills George,387 Oxford Stret  London ,51.514224,-0.1509692,1839
Delaware Arms,Roche Lawrence,220 Oxford Street  London ,51.5143781,-0.1509634,1839
Royal Oak,Bluck Lacy,Circus Street Marylebone London ,51.5194337,-0.150962,1839
Kings Arms,Wilson Frances,12 Marylebone Street  London ,51.5191124,-0.1508956,1839
Six Bells,Bray William,15 Adams Place Chelsea London ,51.5101078,-0.1507921,1839
Coffee House,Laurence William,21 James Street Covent Garden London ,51.5151127,-0.1507746,1839
Grapes,Lawrence Wm,21 James Street Covent Garden London ,51.5151127,-0.1507746,1839
City of Norwich,Plevy John,2 North Row Park Lane London ,51.5054176,-0.1505921,1839
Rose & Crown,Graves Ann,2 Park Lane  London ,51.5054176,-0.1505921,1839
Stags Head,Hitchings Thomas,13 New Cavendish Street  London ,51.5187805,-0.1505892,1839
Coach & Horses,Sandiford William,James Street Kensington London ,51.5149925,-0.1505871,1839
Cross Keys,Bushill William,34 Marylebone Lane  London ,51.5167122,-0.1505781,1839
Sawyers Arms,Cullingford Mark,20 Marylebone Lane  London ,51.5165092,-0.150487,1839
Coach Makers Arms,Edwards George,24 Marylebone Lane  London ,51.5165092,-0.150487,1839
St Lukes Head,Goode William,8 King Street Grosvenor Square London ,51.5123365,-0.1504827,1839
White Lion,Staples John,24 James Street Covent Garden London ,51.5149236,-0.1504706,1839
Pitts Head,Rees James,78 Pitts Head mews Mayfair London ,51.5058042,-0.1503526,1839
New Inn,Schofield George,9 Bulstrode Street  London ,51.5177867,-0.1502956,1839
Nags Head,Hieron James,10 James Street Covent Garden London ,51.5146436,-0.1502333,1839
Cock & Lion,Fothergill Parkin,Wigmore Street  London ,51.5161431,-0.1502278,1839
George,Carter Christopher,53 South Street Grosvenor Square London ,51.511109,-0.1501275,1839
Albion,Christopher Jos,8 Duke Street Grosvenor Square London ,51.511562,-0.1500495,1839
Barley Mow,Pearce Richard,40 Duke Street Grosvenor Square London ,51.511562,-0.1500495,1839
Kings Arms,Keene James,2 Duke Street Grosvenor Square London ,51.511562,-0.1500495,1839
Rose & Crown,Tait James,Hart Street Grosvenor Square London ,51.511562,-0.1500495,1839
Running Horse,Mitchell Edward,32 Duke Street Grosvenor Square London ,51.511562,-0.1500495,1839
George & Dragon,Pearson James,121 Barret Street Lambeth London ,51.5151248,-0.14999,1839
Globe,Modson William,Derby Street Kings Cross London ,51.5061573,-0.1498657,1839
Talbot,Goodyer Wm,21 Little Chester Street Pimlico London ,51.4989274,-0.1496187,1839
Flask tavern,Brown Thomas,9 Ebury Street  London ,51.4941032,-0.1495478,1839
Coach & Horses,Caddell Archibald,37 Hill Street Mayfair London ,51.5081141,-0.1493857,1839
Queens Arms,Thompson Ann,381 Oxford Street  London ,51.5142043,-0.1493277,1839
Bricklayers Arms,Smith Edw.,12 Elizabeth street S. Pimlico London ,51.4930971,-0.1491773,1839
Edinborough Castle,Wressell Joseph,Welbeck Street  London ,51.5171538,-0.1491665,1839
Prince of Wales,Minter John,1 Brick Street Mayfair London ,51.5049448,-0.1491156,1839
Shakspeares Head,Davis Margaret Isabella,2 Eaton Street Pimlico London ,51.4973369,-0.1488615,1839
Crown,Davis Philip,356 Oxford Street  London ,51.5145723,-0.1488348,1839
White Hart,Bright Benjamin,66 Welbeck Street  London ,51.5159562,-0.1488031,1839
Olivers Mount,Weldon William,Mount Row Davies Street London ,51.5122728,-0.1487482,1839
Seabright Arms,Curran James,Hill Street  London ,51.5085622,-0.1486976,1839
Belgrave,Verey Rebecca,1 Upper Ebury Street  London ,51.4952577,-0.1486846,1839
Grapes,Allinson Luke,23 South Molton Street  London ,51.5138646,-0.1486842,1839
Wheat Sheaf,Brown Charles,365 Oxford Street  London ,51.5144455,-0.1486261,1839
Running Horse,Ansell Jno,128 Piccadilly  London ,51.5041786,-0.148521,1839
Cheshire Cheese,Mitchell John,51 Grosvenor Row Chelsea London ,51.5113057,-0.1483982,1839
Coach & Horses,Payne Richard,1 Welbeck Street  London ,51.5155249,-0.1483427,1839
Bleeding Heart,Edmonds Jno,19 Charles Street  London ,51.5075351,-0.1483399,1839
Compasses,Cane Thomas,58 Upper Ebury Street  London ,51.4956023,-0.1481798,1839
Red Lion,Hampton Thos,19 Upper Ebury Street Pimlico London ,51.4956085,-0.1481715,1839
Kings Arms,Marson Henry,47 Upper Ebury Street Pimlico London ,51.4956085,-0.1481715,1839
Bricklayers Arms,Garratt Henry,46 South Molton street  London ,51.513964,-0.1481547,1839
Grapes,Heath John,Sun Court Curzon Street London ,51.5066946,-0.1479503,1839
White Swan,Attwood John,120 Piccadilly  London ,51.5041866,-0.1479409,1839
Feathers,Preston Thomas,4 Charles Court Strand London ,51.5075271,-0.1478536,1839
York Arms,Ender John. Curzon Street,Mayfair  London ,51.5116269,-0.147806,1839
Feathers,Adams Thomas,336 Oxford Street  London ,51.5149715,-0.1477931,1839
Tankard,Foreman Richard,54 Brook Street West Square London ,51.5127909,-0.1477638,1839
Yorkshire Grey,Seamark John,Woodstock Street  London ,51.5144614,-0.1477535,1839
Dover Castle,Watchorn Jno Henry,1 Mount Street Lambeth London ,51.5104776,-0.1477311,1839
Weymouth Arms,Hobby Jas,Weymouth Street  London ,51.5205597,-0.1476854,1839
Edinborough Castle,Barron William,58 Park Crescent Mews  London ,51.5231692,-0.1476711,1839
Rose,Sanders Thomas,88 Wimpole Street  London ,51.5167894,-0.1476413,1839
Grosvenor Arms,Sadler Wm,Lower Belgrave Street Pimlico London ,51.4962523,-0.147492,1839
Nags Head,Haynes William,343 Oxford Street  London ,51.5144821,-0.1473716,1839
Globe,Elston Henry,57 South Molton Street  London ,51.5135934,-0.1473461,1839
Dog & Duck,Jones John,18 Queen Street Soho London ,51.5072462,-0.1473369,1839
Builders’ Arms,Stoatt Thomas,Charles street Kensington London ,51.5077901,-0.1473217,1839
Lord Nelson,Morley Geo,Charles Street St Georges East London ,51.5077901,-0.1473217,1839
Fighting Cocks,English Sarah,43 St John Street Brick Lane London ,51.5053172,-0.1472197,1839
Feathers,Wills Isaac,48 Grosvenor Place Pimlico London ,51.4982693,-0.14714,1839
Union,Adams Robert,22 Queen Street Pimlico London ,51.507022,-0.1471197,1839
Dukes Head,Ruming David,1 Queen Street Chelsea London ,51.50713,-0.1470643,1839
Orange,Meyrich Edw Stanton,33 Queen Street Pimlico London ,51.5070357,-0.1470536,1839
New Chesterfield Arms,Cozens Isaacs,10 Carrington Mews Mayfair London ,51.5061968,-0.1470194,1839
Old Chesterfield Arms,Garringe William,11 Shepherd Street Mayfair London ,51.5061853,-0.1470159,1839
Turks Head,Glaze Samuel,64 Harley Street  London ,51.519605,-0.1469859,1839
Hampshire Hog,Webber William,37 Chalrs Street Westminster London ,51.5078506,-0.1469071,1839
Marlborough Arms,Barwell Ann,3 Blenheim Street  London ,51.5140423,-0.1468571,1839
Three Sugar Loaves,Brown James,101 St John Street Brick Lane London ,51.5053656,-0.1468273,1839
Coach & Horses,Chenery Geo,11 Charles Street Covent Garden London ,51.5081761,-0.1468055,1839
White Hart,Hewitt William,3 whitehart Cort Brook Street London ,51.5129778,-0.1467894,1839
Hercules,Beckett William,14 Devonshire Street Lisson Grove London ,51.521927,-0.146757,1839
Fish & Bell,West John Lambert,9 Charles Street Soho London ,51.5082816,-0.1466487,1839
George,Best William,19 Queen Ann Street  London ,51.5181298,-0.146591,1839
Kings Arms,Hooper James,1 Shepherds Market  London ,51.5063562,-0.1464707,1839
Dolphin,Roberts W H,318 Oxford Street  London ,51.5152386,-0.1464017,1839
Sun,Wyman Charles,47 Curzon Street Mayfair London ,51.5068305,-0.1463973,1839
Dover Castle,Wicks Mary,Weymouth Mews  London ,51.5201438,-0.1463791,1839
Greyhound,Sams John,28 Brook Street Holborn London ,51.5130875,-0.1463228,1839
Essex Serpent,Nurse Mary,42 Charles Street Westminster London ,51.508142,-0.1461812,1839
Plumbers Arms,Till William,1 Lower Belgrave Street  London ,51.4955897,-0.1461148,1839
Coach & Horses,Werrell Merrield,11 Avery Row  London ,51.5126201,-0.1460304,1839
Lion and Lamb,Davis John,20 John Street Whitehorse Lane London ,51.5061644,-0.1459931,1839
Northumberland Arms,Bishop George,2 Charles Street Westminster London ,51.5086328,-0.1459504,1839
Ship,Wilson Henry,46 Charles Street Westminster London ,51.5083572,-0.14593,1839
Plough,Claxton William,Brooks mews Lower Grosvenor Street London ,51.4982576,-0.1455232,1839
Wheat Sheaf,Coultas Chas,Lower Grosvenor Place Pimlico London ,51.4982576,-0.1455232,1839
White Horse,Watson Jas,Brooks Mews Lower Grosvenor Street London ,51.4982576,-0.1455232,1839
Joiners Arms,Lane Jane,Deans Place Westminster London ,51.5173178,-0.1454457,1839
Kings Arms,Childs Mary,Deans Place Westminster London ,51.5173178,-0.1454457,1839
Red Lion,Newstead Benjamin,27 Clarges Street  London ,51.5070569,-0.1454339,1839
Chester Arms,Nash George,1 Chester Terrace  London ,51.5279303,-0.1453799,1839
Blue Posts,King Frederick,John street Oxford street London ,51.5154929,-0.1452894,1839
British Lion,Sperron Jas.,Cavendish street New North road London ,51.5196859,-0.1452086,1839
Prince of Wales,Horwood Henry,15 Charlotte Street New Cavendish Square London ,51.5196859,-0.1452086,1839
Three Compasses,Hay Lucy,7 Little Marylebone Street  London ,51.5558308,-0.1451418,1839
Berkeley Arms,Campbell James,6 John Street Berkeley Square London ,51.5096474,-0.1450789,1839
York & Albany Tavern,Berry Wm,Clarence Street Regents Park London ,51.5438723,-0.1450734,1839
Marquess of Granby,Ward William,33 Little Marylebone  London ,51.5557996,-0.1450257,1839
George,Moorton Henry,13 Brook Street Holborn London ,51.513346,-0.1449827,1839
Hercules,Piper Caroline,13 Brook Street St Pancras London ,51.513346,-0.1449827,1839
Plasterers Arms,Bryant Edward,9 Little Marylebone Street  London ,51.5558022,-0.1449687,1839
Horse and Groom,Buffini Henry,301 Oxford Street  London ,51.5146225,-0.1449195,1839
Phoenix,Shrubsole W H,19 Princes Street Cavendish Square London ,51.5160254,-0.1448084,1839
Crown,Rogers Chas,Henrietta Street Cavendish Square London ,51.5160254,-0.1448084,1839
London Apprentice,Bodger James,7 Margaret Street Cavendish Square London ,51.5160254,-0.1448084,1839
Merlins Cave,Western William,Margaret Street Cavendish Square London ,51.5160254,-0.1448084,1839
Pontefract Castle,Pierpoint Jas Robert,36 Edward Street Cavendish Square London ,51.5160254,-0.1448084,1839
Red Lion,Howard Samuel,Robert Street Berkeley Square London ,51.5094077,-0.1447816,1839
Red Lion,Payne Thomas,1 Union Street Berkeley Square London ,51.5094077,-0.1447816,1839
Rodneys Head,Poole William,23 Robert Street Berkeley Square London ,51.5094077,-0.1447816,1839
Guinea,Lyne James,North Bruton Street  London ,51.5105197,-0.1447439,1839
Marquess of Granby,Garrod Thos,51 Chandos Street Covent Garden London ,51.5174037,-0.1446259,1839
Welch Harp,Small John,47 Chandos Street  London ,51.5174037,-0.1446259,1839
Black Prince,Clutterbuck Charles,64 Chandos Street  London ,51.5174037,-0.1446259,1839
One Tun,Feakins Edward,59 Chandos Street Covent Garden London ,51.5174037,-0.1446259,1839
Ship,Dawe Frederick,61 Chandos Street Covent Garden London ,51.5174037,-0.1446259,1839
White Swan,Freeston Philip,68 Chandos Street Covent Garden London ,51.5174037,-0.1446259,1839
George,Watt James,22 Great Chapel Street Oxford Street London ,51.5149594,-0.1445849,1839
Thistle and Crown,Denton Robert,41 Thomas Street Oxford Street London ,51.5149594,-0.1445849,1839
Three Horse Shoes,Wood Luke,14 Gilbert Street Oxford Street London ,51.5149594,-0.1445849,1839
Bunch of Grapes,Dore William,11 Duke street Oxford street London ,51.5149594,-0.1445849,1839
Castle,Brown Wm.,32 Great Castle street Oxford street London ,51.5149594,-0.1445849,1839
Coach & Horses,Sims Henry,60 Davies Street Oxford Street London ,51.5149594,-0.1445849,1839
Horse and Groom,Hunter G,Winsley Street Oxford Street London ,51.5149594,-0.1445849,1839
Olive Branch,Bloodsworth Frederick,6 Thomas Street Oxford Street London ,51.5149594,-0.1445849,1839
Princess Charlotte,Bowen William,Swallow Place Oxford Street London ,51.5149594,-0.1445849,1839
Red Lion,Miles Henry Wm,7 Duke Street Oxford Street London ,51.5149594,-0.1445849,1839
Running Horse,Bliss William,Davies Street Oxford Street London ,51.5149594,-0.1445849,1839
Three Kings,Verring James,17 Davies Street Oxford Street London ,51.5149594,-0.1445849,1839
Two Chairmen,Watson John,24 Davies Street Oxford Street London ,51.5149594,-0.1445849,1839
Lion and Goat,Dawson Daniel,5 Lower Grosvenor Street  London ,51.4980816,-0.144584,1839
Victory,Dexter Michael,75 Albany Street Regents Park London ,51.5274459,-0.1445387,1839
Cape of Good Hope,Ginger William,39 Albany street Regents park London ,51.5258161,-0.1444983,1839
Queens Head and Artichoke,Baldry Leonard,15 Albany Street  London ,51.5253162,-0.1444601,1839
Kings Arms,Moseley Edw,St Georges Street Albany Road London ,51.5298043,-0.1444408,1839
Two Chairmen,Hedges John,South Bruton Mews  London ,51.5113173,-0.1443155,1839
Chester Arms,France Joseph,115 Albany Street  London ,51.5287561,-0.1442958,1839
Grosvenor Arms,Owen Owen,2 Lower Grosvenor Street  London ,51.4980129,-0.1442805,1839
Middleton Arms,Deacon Jas,24 Portland Place Islington London ,51.5193916,-0.1442578,1839
Grapes,Evans Wm,1 Union Street New Bond Street London ,51.512106,-0.1442352,1839
Lord Aarons Arms,Hodges Ed,New Bond Street  London ,51.512106,-0.1442352,1839
Masons Arms,Hemery Charlotte,18 Maddox Street Hanover Square London ,51.5136796,-0.1441133,1839
Windsor Castle,Bell Jeremiah,60 Albany Street  London ,51.5270114,-0.14404,1839
Marquess of Anglesey,Alderson Richard,77 Devonshire Street Lisson grove London ,51.5223507,-0.1439761,1839
Swan,Evenden Thomas,268 Oxford Street  London ,51.5152084,-0.1439619,1839
Pindar of Wakefield,Reeve William,Constitution Row Kings Cross London ,51.5022577,-0.1439246,1839
Kings Arms,Higgins Richard,264 Oxford Street  London ,51.5153191,-0.1438859,1839
Rose & Crown,Williams William,287 Oxford Street  London ,51.5149047,-0.1437134,1839
Devonshire Arms,Heath John,21 Devonshire Street Portland Place London ,51.5217419,-0.1436306,1839
Masons Arms,Cordeaux Samuel,58 Devonshire Street Portland Place London ,51.5217419,-0.1436306,1839
George,Gammon Charles,8 Grafton Street Soho London ,51.5100865,-0.1435598,1839
Grafton Arms,Rout Thos,21 Grafton Street Fitzroy Square London ,51.5098433,-0.1435036,1839
Brown Bear,Bertan Eliz.,2 Grafton Street Soho London ,51.509551,-0.1433887,1839
Grapes,Bennett Jas,110 Mount Street Grosvenor Square London ,51.6002774,-0.1433782,1839
White Hart,King Charles,276 Oxford Street  London ,51.5151063,-0.1433683,1839
Hole in the Wall,Hidden William,John Street Berkeley Square London ,51.5082341,-0.1433533,1839
Swan,Honey Ann,2 Bridge Court Westminster London ,51.4939326,-0.143331,1839
Duke of Clarence,Sprake C,19 Munster Street Regents Park London ,51.526456,-0.1432368,1839
Coach & Horses,Howard James,4 Dover Street Piccadilly London ,51.5065881,-0.1432213,1839
Duke of Ormonds Head,Burrell George,17 Princes Street Westminster London ,51.5143981,-0.1432194,1839
George & Dragon,Hart Thomas,18 Princes Street Soho London ,51.5142256,-0.1431395,1839
Cock,Pearce John,129 Great Portland Street  London ,51.5203674,-0.1429288,1839
Rose & Crown,Boyce William,9 Clipstone Street  London ,51.5208311,-0.1428343,1839
Red Lion,Langridge Mary,21 Princes Street Westminster London ,51.5144744,-0.1427743,1839
Green Dragon,Banfield Charles,40 Maddox Street  London ,51.5127,-0.142723,1839
Princes Head,Chandler E H,24 Princes Street Westminster London ,51.5144905,-0.1426805,1839
Prince George of Cumberland,Jon John Henry,16 Clarence Street Regents park London ,51.5275859,-0.1426695,1839
Duke of Wellington,Rotheram Charles,28 Princes Street Soho London ,51.5144952,-0.1426528,1839
Valiant Trooper,Allum Chas Alexander,257 Oxford Street  London ,51.5150219,-0.1426476,1839
Harp,Mansell Thomas,52 Princes Street Borough London ,51.5144964,-0.1426459,1839
White Bear,Smith John,54 Princes Street Borough London ,51.5144964,-0.1426459,1839
White Horse,McGregor Alex,70 Princes Street Borough London ,51.5144964,-0.1426459,1839
Jews Harp,Smith Keable,1 Edward Street Cumberland Market London ,51.5290367,-0.1426275,1839
Jolly Farmers,Rowe William,58 Cumberland Market  London ,51.5290367,-0.1426275,1839
George IV,Milnes Rt,28 Edward Street Cumberland Market London ,51.5290367,-0.1426275,1839
Kings Head,Healey George,12 Cumberland Market  London ,51.5290367,-0.1426275,1839
Stag,Austin Henry,2 Cumberland Market  London ,51.5290367,-0.1426275,1839
Bricklayers Arms,Steggall Wm.,3 John street Berkeley square London ,51.5077592,-0.142519,1839
Colosseum,Grace James,1 Carburton Street  London ,51.5221713,-0.1425095,1839
Green Man,Todd Christopher,39 Union Street Great Titchfield Street London ,51.5195791,-0.1424882,1839
Belgrave Head,McKean James,1 Princes Street Soho London ,51.5147374,-0.1424294,1839
Three Kings,Nicholls James,75 Piccadilly  London ,51.5071983,-0.1424239,1839
Three Compasses,Morgan Charles,77 Mount Street Berkeley Square London ,51.5073584,-0.1423269,1839
Coach & Horses,Bailey Thos,118 Mount Street Berkeley Square London ,51.5073584,-0.1423269,1839
Kings Head,McDonald Alex,79 Great Portland Street  London ,51.5183492,-0.1423232,1839
Swedish Flag,Osterberry William,Princes Street St Georges East London ,51.5145695,-0.1422899,1839
Half Moon,Wells John,44 Clipstone Street  London ,51.521032,-0.142275,1839
Bay Malton,Ridler Geo,48 Clipstone Street  London ,51.5209561,-0.1422418,1839
George,Lancefield Christiana,114 Great Portland Street  London ,51.5194974,-0.1422407,1839
White Swan,Helling Robert,97 Great Portland Street  London ,51.5187567,-0.1421655,1839
Black Lion & French Horn,Walker William,5 Pollen Street  London ,51.5135148,-0.1421472,1839
Kings Head,Nash James,19 Winchester Street Borough London ,51.4882503,-0.1421085,1839
Coach & Horses,Rogers David,16 Conduit Street  London ,51.5122974,-0.142068,1839
Nags Head,Newman William,Cain Place Kentish Town London ,51.5473039,-0.142005,1839
Black Horse,Phillibrown Mary,Kentish Town  London ,51.5473039,-0.142005,1839
Bull and Last,Knight Sarah,Kentish town  London ,51.5473039,-0.142005,1839
Castle,Carter Joseph Richd.,Kentish town  London ,51.5473039,-0.142005,1839
Castle,Arthur Wm. Francis,Castle street Holborn London ,51.5159448,-0.1419759,1839
Nine Elms,Garnham Robert,Nine Elms  London ,51.480003,-0.141875,1839
White Horse,Watson Wm,2 Stafford Row Pimlico London ,51.4989658,-0.1418321,1839
Kings Arms,Littlewood Enoch,5 Chapel Street Lambs Conduit Street London ,51.5122733,-0.1418305,1839
Coach & Horses,Glanville George,21 North Street Westminster London ,51.4660192,-0.1417894,1839
Burlington Arms,Still John,21 Old Burlington street  London ,51.5113854,-0.1417681,1839
Fitzroy Arms,Morton Samuel,Clipstone Street  London ,51.5210381,-0.1416863,1839
Carpenters Arms,Fox George,19 Stafford place Pimlico London ,51.4992911,-0.1416585,1839
Gun Tavern,Wall David,Stafford Row Pimlico London ,51.4993955,-0.1415694,1839
Coach & Horses,Paverley Burrell,11 Maddox Street  London ,51.5132684,-0.1415683,1839
Goat,Taylor George,Tash Street  London ,51.6144996,-0.1415619,1839
Britannia,Edwards John,Johnstone place. Mile end London ,51.4867134,-0.1415452,1839
Sun and Horse Shoe,Morgan George,101 Great Titchfield Street  London ,51.5200578,-0.1414967,1839
King Johns Head,Duval? B,8 Albemarle Street  London ,51.5084778,-0.1413334,1839
Queens Head,Wilkinson Joseph,95 Great Titchfield Street  London ,51.5198786,-0.1413298,1839
Horse and Groom,Wilder George,50 Great Portland Street  London ,51.5174405,-0.1412876,1839
Warwick Arms,Simonds Samuel,13 Gillingham Street Westminster London ,51.4939238,-0.141258,1839
Bell,Le Neve Charles,8 Little Titchfield Street  London ,51.5180791,-0.1411501,1839
Grosvenor Arms,Langan Mary,26 George Street Oxford Street London ,51.5153667,-0.1410899,1839
City of Quebec,Morley Thomas,237 Oxford Street  London ,51.515187,-0.1410738,1839
Wellesley Arms,Pratt William,28 Robert Street Chelsea London ,51.5285383,-0.1410169,1839
Blue Posts,Mansfield Charles,32 Old Bond street  London ,51.5089732,-0.1410025,1839
Portland Arms,Renshaw Joseph,8 Great Portland Street  London ,51.5161245,-0.1409659,1839
Swan,Gorely Ruth,3 George Street Great Portland Street London ,51.5192917,-0.1409146,1839
Grapes,Tisdale John,4 Albemarle Street Clerkenwell London ,51.508307,-0.1409058,1839
Goat,Newell John,3 Stafford Street Old Bond Street London ,51.5088823,-0.1408891,1839
Alphabet,Causley George,30 Stanhope Street  London ,51.5265595,-0.1408712,1839
City of Hereford,Dickson George,1 Union Street Great Titchfield street London ,51.519141,-0.1408251,1839
Rose,Burden C,Saville Place Lambeth London ,51.5112884,-0.1407422,1839
Yorkshire Grey,Cheeseman John,17 London Street Fitzroy Square London ,51.5232958,-0.140704,1839
Phoenix,Shannon Malachi,Palace Street Westminster London ,51.4985046,-0.1406296,1839
Pine Apple,Clench Thos,Palace Street Westminster London ,51.4985046,-0.1406296,1839
Blue Posts,Dennison Bernard,6 Bennett street St. James. London ,51.5068873,-0.1404978,1839
Marquess of Westminster,Hawkwell Geo,Belgrave Road Pimlico London ,51.4914133,-0.1404349,1839
Red Horse,Marshall J Hy,10 Old Bond Street  London ,51.5086835,-0.1403941,1839
Westminster Arms,Brooks Sarah,14 Market Street Westminster London ,51.5157535,-0.1403779,1839
Pine Apple,Rymar Robert. 30 Westbourne Street,Pimlico  London ,51.490744,-0.1403619,1839
Duke of Wellington,Lyon James,20 Coleshill Street Pimlico London ,51.490744,-0.1403619,1839
Goat,Chamberlain Jos,Arabella Row Pimlico London ,51.490744,-0.1403619,1839
Kings Arms,Maber Thomas,1 Stockbridge Terrace Pimlico London ,51.490744,-0.1403619,1839
Royal Standard,Moy Jno Thomas,Stockbridge Terrace. Pimlico  London ,51.490744,-0.1403619,1839
Stafford Arms,Halliday Johnm 30 Stafford Place,Pimlico  London ,51.490744,-0.1403619,1839
White Ferry House,Bailey Watkin Lewis,Commercial Road Pimlico London ,51.490744,-0.1403619,1839
William IV,Wood Richard,Commercial Road Pimlico London ,51.490744,-0.1403619,1839
Granby Arms,Carter Charlotte,4 Granby Street Hampstead Road London ,51.5317572,-0.1402937,1839
Bull,Palmer William,Buckingham place Borough London ,51.4991294,-0.1402198,1839
White Horse,Ratcliffe William,169 Regent Street  London ,51.5121822,-0.1401699,1839
Cape of Good Hope,Bacon George,3 Great Titchfield street  London ,51.5166071,-0.1399785,1839
Adams Arms,Richardson William Henry,11 Lower Southampton Street Fitzroy Square London ,51.5234561,-0.1399083,1839
Marquess Cornwallis,Darbyshire Mary,28 Warren Street Fitzroy Square London ,51.5234561,-0.1399083,1839
George & Dragon,Moore Wilkinson,13 Buckingham Place Fitzroy Square London ,51.5234561,-0.1399083,1839
Railway,Howse George,Nine Elms Vauxhall London ,51.4565729,-0.1398906,1839
Grapes,Joynt Evan Dunham,26 Great Marlboro Street  London ,51.5141198,-0.1398633,1839
York Minster,Googe Thomas,17 Foley Street  London ,51.5196041,-0.1398392,1839
Bear & Rummer,Gilbank Jno,Mortimer Street  London ,51.5179382,-0.1398201,1839
Queens Head,Baines Edward,52 Piccadilly  London ,51.508307,-0.1397622,1839
Carlisle Arms,Partridge Samuel,Carlisle place Lambeth London ,51.4941827,-0.1397281,1839
George IV,Pope Ephraim,5 Leicester Street Regent Street London ,51.5121281,-0.1396914,1839
Grapes,Smith John,27 Silver Street Regent Street London ,51.5121281,-0.1396914,1839
Regents Arms,Bath Wm,Regent Street Westminster London ,51.5121281,-0.1396914,1839
Silver Street Coffee House,Rotherham John,13 Silver Street Regent Street London ,51.5121281,-0.1396914,1839
Gregorian Arms,Short Jas,St James Place  London ,51.5057302,-0.1396827,1839
Camdens Head,Beazley James,48 High street Camden street London ,51.5360379,-0.1396104,1839
Shakspeare,William John,Marlborough Street Carnaby street London ,51.5138484,-0.1396071,1839
Union,Todd James,191 Oxford Street  London ,51.5154905,-0.1395442,1839
Angel and Crown,Hart John,11 Heddon Street Regent Street London ,51.5114437,-0.1395344,1839
Sun,Johnson Henry,1 Heddon Street Regent Street London ,51.5114437,-0.1395344,1839
Yorkshire Grey,Tappin J T,Foley Place  London ,51.5196286,-0.1395218,1839
Globe,Cheesewright J,54 London Street Fitzroy Square London ,51.5227008,-0.1394769,1839
Fitzroy Arms,Curd John,126 Grove Street Camden Town London ,51.5401604,-0.1393632,1839
Bulls Head,Edwards Thomas,6 Jewin crescent  London ,51.5350219,-0.1393536,1839
Marlborough Head,Gunn Elizabeth,33 Great Marlborough Street  London ,51.5139145,-0.1393284,1839
Coach & Horses,Depledge Rebecca,Grosvenor Mews  London ,51.4848633,-0.1392675,1839
Kings Head,Pinches Wm,1 Ranelagh Street Pimlico London ,51.4879139,-0.1392579,1839
Kings Arms,Arnett Thomas,8 Little St James Street  London ,51.5048366,-0.1392118,1839
Kings Arms,Pither William,2 Ranelagh Road Pimlico London ,51.4878292,-0.1392056,1839
White Horse,Sturges Wm,4 North Street Fitzroy Square London ,51.5228467,-0.1391525,1839
Catherine Wheel,Jenkins Richard F,1 Little St James Street  London ,51.5047357,-0.1391297,1839
Sutling house,Nicholson Jas,Cleveland Row St James London ,51.5045643,-0.1390498,1839
King and Queen,Edgington William,174 Oxford Street  London ,51.5157575,-0.1390453,1839
Sunderland Arms,Brown Abraham,25 Sackville Street  London ,51.5100978,-0.1390027,1839
Union,Sandon Benjamin,73 Jermyn Street  London ,51.5075963,-0.1389515,1839
Coach & Horses,Wild William John,43 Carnaby Street  London ,51.5131499,-0.1389027,1839
Castle,Tirkin James,24 Carnaby street  London ,51.5133074,-0.1388872,1839
Dutchess of Clarence,Walford Walter Swift,Belvoir Terrace Vauxhall London ,51.4929248,-0.1387916,1839
Bulls Head,Locke Charles,44 Carnaby street  London ,51.5130373,-0.1387634,1839
Stag,Church John,Castle Lane Westminster London ,51.498678,-0.1387398,1839
Admiral Duncan,Green Samuel,Buckingham court Strand London ,51.4992351,-0.1387057,1839
Two Brewers,Bryson Jas,Buckingham Row Westminster London ,51.4992351,-0.1387057,1839
Princess Amelia,Pantry Chas,181 Oxford Street  London ,51.5154981,-0.1386934,1839
King and Queen,Clayton Elizabeth,1 Foley Street  London ,51.5202426,-0.1386403,1839
Railway,Goodman Martha,5 Harmwood Place Hampstead Road London ,51.5293895,-0.1385966,1839
Sols Arms,Roberts John,1 Sols Row Hampstead Road London ,51.5293895,-0.1385966,1839
Prince Regent,Wood Thomas William,130 Regent Street Kennigton London ,51.5110487,-0.1385386,1839
Angel and Crown,Houess Henry,36 warwick Street Golden Square London ,51.5115458,-0.1385331,1839
Artillery Arms,Young Wm,Rochester Terrace  London ,51.5445569,-0.1385317,1839
Ship,Frewin John,13 Carnaby Street  London ,51.5129719,-0.1384319,1839
Grapes,Gambart Ann,24 Marshall Street Golden Square London ,51.5138265,-0.1382849,1839
Blue Posts,Mitchelson Henry,18 King street Golden square London ,51.5062545,-0.1382703,1839
Nags Head,Gill William Jno,30 Marshall Street Golden Square London ,51.5137491,-0.1382678,1839
Fox,Rotheram Thomas,162 Oxford Street  London ,51.5160384,-0.1382663,1839
Laurel Tree,Thorn Richard,36 Bayham Street Camden Town London ,51.5357877,-0.1382637,1839
Hampton Court Palace,Godfrey William,Francis Street Newington London ,51.4951555,-0.1382148,1839
Welch Harp,Wallace J,52 Carnaby Street  London ,51.5124657,-0.1381502,1839
Windsor Castle,Jackson Ann,Windsor Terrace Vauxhall London ,51.4952213,-0.1381051,1839
Craven Arms,Gibson Geo,38 Marshall Street  London ,51.5135244,-0.1380976,1839
Red Lion,May Mary,14 King Street Golden Square London ,51.5063208,-0.1380941,1839
Sun & Falcon,Anderson Benjamin,Down Street Piccadilly London ,51.5088392,-0.1380719,1839
Swan,Attwood John,29 Down Street Piccadilly London ,51.5088392,-0.1380719,1839
Fortune of War,Brooks Ann,Pratt Street Camden Town London ,51.5383629,-0.1380479,1839
Globe,Beard John,21 King Street Clerkenwell London ,51.5060862,-0.1380426,1839
Star & Garter,Dixon John,21 King Street Westminster London ,51.5060862,-0.1380426,1839
Victory,Griffin Thomas,167 Oxford Street  London ,51.5156112,-0.1380036,1839
Yorkshire Grey,Wells Jno,189 Piccadilly  London ,51.5085035,-0.137848,1839
Chequers,Bason Jno,16 Duke Street St James London ,51.5075462,-0.1378016,1839
Goat & Compasses,Normington John,8 Upper Fitzroy Street  London ,51.5216087,-0.137727,1839
Bromley Arms,Allen Edward,27 Cleveland st  London ,51.5196093,-0.1376674,1839
Angel and Comfort,Knapp Andrew,23 king Street Holborn London ,51.5060792,-0.137593,1839
George IV,Gill Jacob,St Albans Terrace Vauxhall Bridge Road London ,51.4924762,-0.1375388,1839
Royal Pavilion,Ing Thomas,Howick Terrace Vauxhall Bridge Road London ,51.4924762,-0.1375388,1839
Swan,Bailey Samuel,Vauxhall Bridge Road  London ,51.4924762,-0.1375388,1839
Upholsterers Arms,Freeman Thomas,39 Poland Street  London ,51.5153138,-0.1375187,1839
Southampton Arms,Dowley Thomas,141 Tottenham Court Road  London ,51.5240789,-0.137505,1839
Lord Camden,Brooks John,16 Camden Street  London ,51.5377078,-0.1375045,1839
Ship,Rouse Charles,16 Camden Street Islington London ,51.5377078,-0.1375045,1839
Adam & Eve,Butler Mary,1 Eve Terrace Somerstown London ,51.5161127,-0.1374792,1839
Golden Lion,Brodrick Michael,25 King Street St James London ,51.506308,-0.137477,1839
Goat & Star,Howard Daniel,6 Swallow Street  London ,51.509307,-0.1373997,1839
Two Brewers,Parsons William,36 Jermyn Street St James London ,51.5083087,-0.137337,1839
Camdens Head,Grammar Samuel,2 Camden street Islington London ,51.5374349,-0.1372541,1839
Kings Arms,Langston William,23 Poland Street  London ,51.5151396,-0.1372492,1839
Marquess of Granby,Jones James,Vine Street Westminster London ,51.5094857,-0.1371711,1839
Bulls Head,Husband Jno.,Little Windmill street Golden square London ,51.512001,-0.1370971,1839
White Hart,Greathead Jno,Little windmill Street Golden Square London ,51.512001,-0.1370971,1839
King of Prussia,Barber Samuel,7 Lower John Street Golden Square London ,51.5110602,-0.1370665,1839
Duke of York,Bell Joshua,Ormond yard St James London ,51.5079736,-0.1370223,1839
George & Dragon,Edwards Robert,37 Vine Street Westminster London ,51.5095675,-0.13698,1839
Ship,Edwards Robert,40 Vine Street Westminster London ,51.5095675,-0.13698,1839
Roebuck,Pople George,109 Tottenham Court Road  London ,51.5230504,-0.1369599,1839
London Spa,Erlam Rd,Exmouth Street Clerkenwell London ,51.5274686,-0.1369449,1839
White Horse,Cocks John,16 West Row Golden Square London ,51.5113161,-0.1369056,1839
Gloucester Arms,Blakey John,Rochester Row Westminster London ,51.4942381,-0.1368562,1839
Three Jolly Gardeners,Sims & Jones,3 Old Rochester Row Westminster London ,51.4942381,-0.1368562,1839
Green Man,Malcolm John,57 Berwick street  London ,51.5154754,-0.1367457,1839
Britannia,Smith John Thos.,8 Portland street Soho London ,51.514268,-0.1366427,1839
Three Compasses,Stroud Geo,Glasshouse Street London Docks London ,51.5104769,-0.1365995,1839
Crown,Farrell Ann,Glasshouse Street  London ,51.5104769,-0.1365995,1839
Two Brewers,Lent Jas,Glasshouse Street London Docks London ,51.5104769,-0.1365995,1839
Sun and Thirteen cantons,Verele Sarah,21 Great Pulteney Street  London ,51.5126573,-0.136587,1839
Bulls Head,Thornett John,101 Tottenham Court road  London ,51.5225389,-0.1365398,1839
White Hart,Hopper Moses,44 Berwick Street Oxford Street London ,51.5157125,-0.1365098,1839
Lord Nelson,Smith Jas,100 Mary Street Tottenham Court Road London ,51.5224652,-0.1364614,1839
Old Cock,Fennell Jno,1 Market Street Jermyn Street London ,51.5085002,-0.1364548,1839
Three Crowns,Pugh Samuel,3 Well Street Jermyn Street London ,51.5085002,-0.1364548,1839
Blackamoors Head,Cater Lewis,Jermyn Street  London ,51.5085002,-0.1364548,1839
Wheat Sheaf,Absalon James,23 Church Row Somerstown London ,51.5087899,-0.1364396,1839
Star & Garter,Brissenden B,62 Poland Street  London ,51.5136927,-0.1364211,1839
Tallow Chandlers Arms,Finch Henry,30 King Street Golden Square London ,51.5066313,-0.1363663,1839
Rising Sun,Sheffield Thomas,3 Air Street Piccadilly London ,51.5101009,-0.1363604,1839
Sun,White William,57 Newman Street  London ,51.5185534,-0.1363068,1839
Skinners Arms,Brigham John,25 Cobourg Street Clerkenwell London ,51.5277475,-0.1362565,1839
Bull,Barnes Hy. & Edward,Birdcage alley  London ,51.5007153,-0.1360805,1839
Royal Oak,Draper Thomas,Barnet Street Birdcage Walk London ,51.5007153,-0.1360805,1839
Mitre & Dove,Gilpin Sarah,Knight Street Westminster London ,51.5147546,-0.13608,1839
Three Pigeons,Gillatt Isaac,205 Piccadilly  London ,51.5091251,-0.1360485,1839
Bell & Crown,Alehouse James,King Street Camden Town London ,51.5069475,-0.1360266,1839
George IV,Clarke Robert,King Street Terrace Islington London ,51.5069475,-0.1360266,1839
Queens Head,Stonnell John,13 Little Pulteney Street  London ,51.5121187,-0.1360202,1839
St Lukes Head,Sinclair Joseph,10 Little Pulteney Street  London ,51.5121187,-0.1360202,1839
Duke of Argyle,Hutchinson John,Little Pulteney street  London ,51.5121187,-0.1360202,1839
Rose & Crown,Malyon William,1 Little Pulteney Street  London ,51.5121187,-0.1360202,1839
King of Prussia,Townsend Henry,30 Little Charlotte Street  London ,51.5196869,-0.1360065,1839
Star & Garter,Cox Sophia,44 Pall Mall  London ,51.5059052,-0.1359932,1839
General Graham,Folkard A,11 Silver Street Clerkenwell London ,51.5129941,-0.1359931,1839
Coach & Horses,Wilson Richard,24 Silver Street Golden Square London ,51.5129941,-0.1359931,1839
Crown,Lawrence Jas,38 Silver Street Golden Square London ,51.5129941,-0.1359931,1839
Red Lion,Silver John,17 Silver Street Golden Square London ,51.5129941,-0.1359931,1839
Spencers Arms,Umpleby William,1 Silver Street Clerkenwell London ,51.5129419,-0.1359137,1839
Three Compasses,Watts Daniel,3 Silver Street Golden Square London ,51.5130036,-0.1358872,1839
Plough,Cropp Thos,18 Rochester Row Westminster London ,51.4956216,-0.1358755,1839
Royal Tent,Layfield Henry,5 Silver Street Golden Square London ,51.5130976,-0.1358239,1839
Duke of York,Field Charles,59 Regent Street Westminster London ,51.5097642,-0.1357815,1839
Kings Arms,Robertson James,82 Tottenham Court Road  London ,51.521585,-0.1357085,1839
Monson Arms,Long Thos,21 Tottenham Street  London ,51.5202829,-0.1356657,1839
Wellington,Howes W S,31 University Street  London ,51.5235002,-0.1355682,1839
Lion and Lamb,Abbey James,1 Drummond Street Somerstown London ,51.5275881,-0.1354968,1839
Drummond Arms,Willemite George,35 Drummond Street Somerstown London ,51.5275881,-0.1354968,1839
Royal George,Cullingford Henry,25 Drummond Street Somerstown London ,51.5275881,-0.1354968,1839
Blue Posts,Glaze John,81 Newman street  London ,51.5169759,-0.1354566,1839
Marquess of Granby,Hill William,7 Kemps Row Pimlico London ,51.5133972,-0.1353081,1839
Northumberland Arms,Ball Js,36 Goodge Street  London ,51.5196733,-0.1352996,1839
Monster,Sanders Samuel,St Georges Row Pimlico London ,51.4876079,-0.1352875,1839
Mallards Arms,Summers Mary,Grove Street St Georges East London ,51.4868596,-0.1352446,1839
Globe,Isherwood Jas,53 Regent Street Kennington London ,51.5097805,-0.1352331,1839
Duke of York,Robins Jno,8 Little Charlotte Street Goodge Street London ,51.5195818,-0.1352145,1839
Kings Head,Yates Ann,Cumberland Street Goodge Street London ,51.5195818,-0.1352145,1839
Fox & Grapes,Croft Daniel,49 Brewer Street  London ,51.511622,-0.1351841,1839
Harp,Williams daniel,18 Jermyn Street  London ,51.5090748,-0.1351782,1839
Three Doves,Sands Charles,24 Berwick Street  London ,51.5140415,-0.1351491,1839
Coach & Horses,Hodson John,45 Brewer Street  London ,51.5116622,-0.1351406,1839
One Tun,Whisson James & Co,28 Goodge Street  London ,51.5197398,-0.1351314,1839
Hampshire Hog,Wilcox James,90 Berwick Street  London ,51.5134459,-0.1350578,1839
Royal Standard,Smith William,227 Piccadilly  London ,51.5095851,-0.135043,1839
Blue Posts,Davis William Michael,22 Berwick street  London ,51.5138274,-0.1350268,1839
Apollo,Adams Thos,191 Tottenham Court road  London ,51.5214413,-0.134954,1839
Anchor & Hope,Friend George,19 Great Charlotte Street  London ,51.5184591,-0.134742,1839
White Bear,Scarf Edward,100 Berwick Street Soho London ,51.5129622,-0.1346586,1839
Blue Posts,Rhodes Richard Charles,24 Charlotte street Fitzroy square London ,51.5187039,-0.1346404,1839
Red Lion,Black Edward,23 Crown Court Pall Mall London ,51.50638,-0.1346397,1839
Blackamoors Head,Clark James,4 Dorset Place Pall Mall London ,51.50638,-0.1346397,1839
Ham and Windmill,Roerden Wm,37 Great Windmill Street  London ,51.511547,-0.1345592,1839
George,Baker William,29 Brewer Street Golden Square London ,51.5120285,-0.1344888,1839
Lord High Admiral,Dennison Joseph,76 Vauxhall Bridge Road  London ,51.4910954,-0.1344623,1839
Independent,Gurney Arthur,24 Brewer Street Somerstown London ,51.5122171,-0.1344571,1839
White Hart,White James,199 Tottenham Court Road  London ,51.5209622,-0.1344434,1839
Chapel House,Wilson James,62 Chapel Street Pentonville London ,51.5154436,-0.1343792,1839
Castle,Cleggett George Mount,17 Great Chapel street Westminster London ,51.5152272,-0.1343719,1839
Feathers,Marriott George,6 Great Chapel Street Westminster London ,51.5155002,-0.1343702,1839
City of London,Law Wm,104 Berwick Street  London ,51.5128781,-0.1343118,1839
Plough,Smith William,305 Oxford Street  London ,51.5160901,-0.1343012,1839
Green Man & Still,Patterson Robert,122 Oxford Street  London ,51.5160901,-0.1343012,1839
Hog in the Pound,Robinson NeWilliaman,294 Oxford Street  London ,51.5160901,-0.1343012,1839
Spread Eagle,Bellenger H F,303 Oxford Street  London ,51.5160901,-0.1343012,1839
Black Lion,Roberts John,4 Berwick Street Soho London ,51.5130269,-0.1342826,1839
Angel,Watson Jas,8 Great Chapel Street Westminster London ,51.5154815,-0.1342229,1839
Crown,Morris John,14 Brewer Street Golden Square London ,51.5123304,-0.1341455,1839
Three Spies,Barker Chas, Great Windmill Street London ,51.5111171,-0.1341431,1839
Bull,Fernes Peter,43 Great Windmill street  London ,51.511049,-0.1341235,1839
Bell,Bell James,21 Pall Mall  London ,51.5067942,-0.1340889,1839
Catherine Wheel,Burman John,46 Great Windmill street  London ,51.510949,-0.1340668,1839
Coopers Arms,Drake Thomas,6 Strutton Ground  London ,51.4973689,-0.1340318,1839
Green Man and French Horn,Jewell Stephen,96 Dean Street Soho London ,51.5153768,-0.1340081,1839
Kings Arms,Pugh Lewis,10 Windmill Street Finsbury London ,51.5186611,-0.1339273,1839
Bricklayers Arms,Smith Samuel,40 Strutton ground  London ,51.4965989,-0.1338898,1839
Rose & Crown,Cooper Benjamin,62 Tottenham Court Road  London ,51.519875,-0.1338723,1839
George,Edwards Wm. 1 Portland Street,Wardour Street  London ,51.513114,-0.1338129,1839
Red Lion,Wood George,21 Portland Street Wardour Street London ,51.513114,-0.1338129,1839
Sun,Taylor Edward,25 Noel Street Wardour Street London ,51.513114,-0.1338129,1839
John O'Groats,Gregory George William,61 Rupert Street  London ,51.5121987,-0.1337868,1839
Bunch of Grapes,Wood Edward,9 Bennett street Rathbone place London ,51.5172944,-0.1337834,1839
Horse and Groom,Biddlecombe Charles,21 Gresse Street rathbone Place London ,51.5172944,-0.1337834,1839
Maidenhead,Hoy Jas,Windmill Street Finsbury London ,51.5188556,-0.133739,1839
Two Brewers,Edmonds William,45 Strutton Ground  London ,51.4967549,-0.1337187,1839
Three Tuns,Carter Isaac James,2 Broadway Westminster London ,51.4987642,-0.1336961,1839
Half Moon,Garner John,62 Strutton Ground Westminster London ,51.4966383,-0.1336897,1839
Hawarden Castle,Botcherley David,3 Gower Place  London ,51.5255809,-0.1336439,1839
New Star and Crown,Stewart Johanna,Broadway Westminster London ,51.4988806,-0.1336066,1839
Royal Oak,Spurgin Thomas,1 Regent Street Westminster London ,51.5080049,-0.1335144,1839
Royal Oak,Ward Thomas,1 Regent Street Westminster London ,51.5080049,-0.1335144,1839
Thistle and Crown,Underhill Wm,84 Great Peter Street Westminster London ,51.4965938,-0.1334549,1839
Highlander,Casalaveres Christr,89 Dean Street Soho London ,51.5148495,-0.1334485,1839
Brill House,Drewry Edward,1 Brewer street Somerstown London ,51.5124474,-0.1334108,1839
Red Lion,Pritchard John,123 Jermyn Street  London ,51.5095428,-0.1334033,1839
Bricklayers Arms,Bell James,31 Gresse street  London ,51.5177743,-0.1333927,1839
Cheshire Cheese,Samsum James,10 Dean Street Holborn London ,51.5151629,-0.1333505,1839
Kings Head,Fencott William,Alfred Place Newington London ,51.5206013,-0.1333415,1839
Unicorn,Bailey George,79 Jermyn Street  London ,51.509569,-0.1333273,1839
Two Chairmen,Preston Thomas,81 Wardour Street Soho London ,51.5124623,-0.1333136,1839
Old Star and crown,Hittinger Samuel,14 Broadway Westminster London ,51.4991465,-0.133277,1839
Rose & Crown,Hinder George E,85 Dean Street Soho London ,51.5146937,-0.1332307,1839
Feathers,Newman Henry,11 Dean Street Westminster London ,51.5149223,-0.1332113,1839
Black Horse,Adamson Jane,46 Haymarket  London ,51.5099571,-0.1332096,1839
Black Horse,Law William,6 Rathbone Place  London ,51.5166514,-0.1332091,1839
White Lion,Garrett Samuel,56 Oxford Street  London ,51.5162253,-0.1332074,1839
Walnut Tree,Hardstaff Wm,St Albans Street Lambeth London ,51.5088268,-0.1330952,1839
Lemon Tree,Gregory William,39 Haymarket  London ,51.5099048,-0.1330902,1839
Fox,Elphick Henry,75 Wardour Street Soho London ,51.5123075,-0.1330035,1839
Grapes,Osborn Thomas,52 Haymarket  London ,51.5092884,-0.1329984,1839
York Minster,Dumbrell George,50 Wardour Street  London ,51.5123205,-0.1329723,1839
Blue Cross,Poore James,69 Wardour street  London ,51.5121912,-0.1328785,1839
Victoria,Vialls John,105 Chalton Street Somerstown London ,51.5320202,-0.1326916,1839
Alfreds Head,James Richard,6 Alfred Place Newington London ,51.5198964,-0.1326651,1839
Blue Posts,Christoffers John,59 Haymarket  London ,51.508968,-0.1326521,1839
Chequers,Smith Sarah,55 Tothill Street Westminster London ,51.4996865,-0.1326077,1839
Cock,Hutchings George,72 Tothill Street  London ,51.4996865,-0.1326077,1839
Golden Fleece,Moon John,70 Tothill Street Westminster London ,51.4996865,-0.1326077,1839
Kings Arms,Hudson Benjamin,52 Tothill Street  London ,51.4996865,-0.1326077,1839
Golden Lion,Peacock John,42 Wardour Street Soho London ,51.5118695,-0.1324968,1839
Three Tuns,Scarle Samuel,20 Rupert Street  London ,51.5109277,-0.1324574,1839
Three Compasses,Clark Robert,Wandsworth Road  London ,51.4744356,-0.1324144,1839
Blue Posts,Thomas Sarah,14 Rupert street  London ,51.5108023,-0.1323848,1839
Kings Cross,Maber John,Kings Cross  London ,51.5333335,-0.1322312,1839
Angel,Hubbard John,47 Tothill Street  London ,51.4996985,-0.1322299,1839
Coach & Horses,Brook James,62 Frith Street Soho London ,51.5143229,-0.1321804,1839
Bedford Head,Westmoreland William George,236 Tottenham Court road  London ,51.5187603,-0.1321285,1839
Waterloo Tavern,Pearson Robert,69 Haymarket  London ,51.5086087,-0.1320914,1839
Plough,Chevins Charles,40 Rupert Street Haymarket London ,51.5088343,-0.1320492,1839
Queens Head,Barritt G,16 Queen Street Haymarket London ,51.5088343,-0.1320492,1839
Red Lion,Delaney Jas,20 Great Windmill Street Haymarket London ,51.5088343,-0.1320492,1839
Union Arms,Crook John,26 Panton Street Haymarket London ,51.5088343,-0.1320492,1839
Waterford Arms,Smith Isaac,Haymarket  London ,51.5088343,-0.1320492,1839
Robin Hood,Stoker Mark,14 Great Windmill Street Haymarket London ,51.5088343,-0.1320492,1839
White Horse,Slograve Chas,Rupert Street Haymarket London ,51.5088343,-0.1320492,1839
White Lion,Binning Thos,6 St Albans Place Haymarket London ,51.5088343,-0.1320492,1839
Blue Posts,Morgan William Thomas,23 Haymarket  London ,51.5091753,-0.1320231,1839
Black Horse,Wood John,32 Coventry Street  London ,51.5102579,-0.1318959,1839
Two Fighting Cocks,Clent William,Dartmouth Street Westminster London ,51.50051,-0.1318594,1839
Ship,Balding James,16 Vauxhall Bridge Road  London ,51.489814,-0.1317943,1839
Rose & Crown,Bratt John & Joseph,21 Dartmouth Street  London ,51.5003513,-0.1317797,1839
Fighting Cocks,Clent William,37 dartmouth Street  London ,51.5006514,-0.1317674,1839
Two Chairmen,Field William,38 Dartmouth Street Westminster London ,51.5006514,-0.1317674,1839
Grey Coat Boy,Young Jas,38 Great Peter Street  London ,51.4968277,-0.1317624,1839
Nags Head,Free Thomas,30 Tothill Street Westminster London ,51.4997026,-0.1317356,1839
Prince of Mecklenburgh,Franklin Thomas,33 James Street Oxford Street London ,51.5162049,-0.1316975,1839
Black Horse,Taylor John,30 Oxendon Street  London ,51.5098162,-0.1316563,1839
Old Bell,West John,25 Tothill Street Westminster London ,51.4997026,-0.1316244,1839
Old George,Whisson James & Collis,29 Oxford Street  London ,51.5161804,-0.1316107,1839
Red Lion,Clark Benjamin,2 Hanway Street  London ,51.5169129,-0.1316103,1839
Kings Arms,Jarvis William,10 Hanway Street  London ,51.5169129,-0.1316103,1839
Red Cap,Standen Stephen,24 High Street Camberwell London ,51.4644831,-0.1315965,1839
Friend at Hand,Dixon Thomas,Platt Terrace Somerstown London ,51.53372,-0.1315757,1839
Blue Posts,Jeffery William,6 Tottenham court road  London ,51.517239,-0.1314847,1839
Ship,Groves James,16 Tottenham Place  London ,51.517074,-0.1314334,1839
Rising Sun,Marshall Thos,12 Somers Place Somerstown London ,51.5333286,-0.1314331,1839
Two Ships,Whisson & Colliss,27 Old Compton Street  London ,51.5130422,-0.1313793,1839
Kings Head,Baylis John,29 Old Compton Street  London ,51.5129951,-0.1313733,1839
Exmouth Arms,Eves Charles M,Exmouth Street Euston square London ,51.527818,-0.1313718,1839
Jolly Gardeners,Seaward Jas,Cobourg Street Euston Square London ,51.527818,-0.1313718,1839
Seymour Arms,Bingley A W,42 Upper Seymour Street Euston Square London ,51.527818,-0.1313718,1839
Southampton Arms,Hayter John,41 Whittlebury Street Euston Square London ,51.527818,-0.1313718,1839
Horse and Dolphin,Hammond Francis,11 Macclesfield Street Soho London ,51.5121032,-0.1313489,1839
Crown,Thompson Matthew,3 green Street Leicester Square London ,51.511105,-0.1310987,1839
Hercules Pillars,Green Rd,7 Greek Street Soho London ,51.5146156,-0.1310916,1839
Falcon,Mitchell Jane,3 Sutton Street Soho London ,51.5155847,-0.1310711,1839
Marquess of Granby,King Sarah,13 Orange Street Borough London ,51.5092088,-0.1310667,1839
Bell,West John,25 New Tothill Street  London ,51.4997085,-0.131042,1839
Bell,Boulter Samuel,5 Leicester Street  London ,51.5109782,-0.1310257,1839
White Hart,Webster Robert,8 Market Street Oxford Street London ,51.5163931,-0.1309673,1839
Grapes,James John,12 Gerrard Street Soho London ,51.5119413,-0.1309526,1839
Masons Arms,Brown John,3 Oxford Market  London ,51.516401,-0.1308678,1839
Goat,Hutchinson Geo,25 Chenies Street Bedford Square London ,51.5185929,-0.1308632,1839
Flying Horse,Coombs Edward,2 Oxford Street  London ,51.5164026,-0.1308479,1839
Grapes,Pfeiffer Andrew,21 Old Compton Street  London ,51.5132451,-0.1307732,1839
Blenheim,Rudd Joseph,7 Bond Street Chelsea London ,51.5163255,-0.1306837,1839
Oxford Arms,Bill Mary Ann,Oxford Place Westminster Road London ,51.5162296,-0.1306505,1839
Freemasons Arms,Woodgate Jas,Suffolk Street Kings Cross London ,51.5083535,-0.130625,1839
George & Dragon,Ampleford Robert,22 Greek Street Soho London ,51.5138039,-0.1305158,1839
Hand and Raquet,Oldbury Thos,21 Whitcomb Street  London ,51.508952,-0.1304444,1839
Fox and Hounds,Edwards Chas,265 Tottenham Court Road  London ,51.516936,-0.1304373,1839
Carpenters Arms,Hentsch F. C.,8 Howland street Tottenham court road London ,51.516449,-0.1304144,1839
White Hart,Pain Thomas,18 Windmill Street Tottenham Court Road London ,51.516449,-0.1304144,1839
Cock,Temple Geo,62 Chalton Street Somerstown London ,51.5298352,-0.1303903,1839
Brecknock Arms,Stones James,Camden road east  London ,51.5479335,-0.1303586,1839
Horse Shoe,Chantry George,267 Tottenham Court Road  London ,51.5169789,-0.1302091,1839
Coach & Horses,Burman John,29 Greek Street Soho London ,51.5132705,-0.1301703,1839
Bee Hive,Gurney David,55 Brill Row  London ,51.5314951,-0.1301639,1839
Blue Boar,Davies William,111 Great Russell street  London ,51.5173917,-0.1300081,1839
Two Chairmen,Malcolm robert,20 1/2 Cockspur Street  London ,51.5078353,-0.129954,1839
Duke of Clarence,Tapp James,1 Clarence Place Camberwell London ,51.4545238,-0.1299339,1839
Falcon,Dent John,1 Lisle Street Leicester Square London ,51.5109159,-0.1299116,1839
Salisbury Arms,Howard George,9 Bear Street Leicester Square London ,51.5109159,-0.1299116,1839
Black Swan,Waite John,7 Ryders Court Leicester square London ,51.5109159,-0.1299116,1839
Kings Head,Dunning Sarah,48 Gerrard Street Soho London ,51.5121112,-0.1298791,1839
Fleece,Howell William,16 Marsham Street Westminster London ,51.4956422,-0.1298757,1839
Kings Arms,Mathey Louis Henry,7 Old Compton Street  London ,51.5136691,-0.1298039,1839
Three Tuns,Simpson Thomas,2 Moor Street Soho London ,51.5134682,-0.1297868,1839
Old Red Lion,Davidson Grace,12 Great Russell Street Covent Garden London ,51.5172439,-0.1296959,1839
Eagle,Kimble Frederick,12 Brecknock Place  London ,51.5492389,-0.1296827,1839
Eight Bells,Lambourn William,Little denmark Street  London ,51.5151803,-0.1296386,1839
Coffee House,Shepherd George,32 Chalton Street  London ,51.5292422,-0.1294131,1839
Crown,Marriott Thomas,36 High Street St Giles London ,51.5160009,-0.1293863,1839
Dukes Head,Stokes William,Great Peter Street Westminster London ,51.4969041,-0.1293843,1839
Lord Brougham,Muir A,55 High Street St Giles London ,51.5157374,-0.1293221,1839
Bedford Arms,Picnot Andre,17 Leicester Square  London ,51.5106872,-0.1292901,1839
Duke of York,Silcock William,Brill Crescent Somerstown London ,51.5319014,-0.1291999,1839
Duke of Wellington,Carlton Charles,15 Spring gardens  London ,51.5071578,-0.1291471,1839
Queens Head,Smith William,68 Marsham Street Westminster London ,51.4950624,-0.1290782,1839
Windmill,Dowsett Thomas,New Park Street Borough London ,51.4466765,-0.1290635,1839
Paviers Arms,Campbell John,Johnson Street Horseferry Road London ,51.4948834,-0.1290574,1839
Anchor & Hope,Pyle Charles,Horseferry Branch Road  London ,51.4948834,-0.1290574,1839
Old Kings Head,Howard Wm,Romney Terrace Horseferry Road London ,51.4948834,-0.1290574,1839
White Horse & Bower,Reeves John,Romney Terrace Horseferry Road London ,51.4948834,-0.1290574,1839
Kings Head,Odwell Simeon,6 Great Georges Row  London ,51.5012144,-0.1290303,1839
White Lion,Abbott John,16 High Street St Giles London ,51.5159696,-0.1289621,1839
White Bear,Randolph Geo Hy,28 Little Newport Street  London ,51.5117535,-0.1289404,1839
Rose & Crown,Foulkes Stephen,25 Little Newport Street  London ,51.5117535,-0.1289404,1839
Bear & Ragged Staff,Watkins James,11 Bear Street  London ,51.5109601,-0.1289388,1839
Hereford City,Gibson Alfred,4 Lichfield Street Soho London ,51.5127897,-0.1287603,1839
Green Man,Hewett Thomas,Green Street Bear Lane London ,51.5109372,-0.1286995,1839
Silver Cross,Jarvis Edw,25 Charing Cross  London ,51.5105714,-0.1286402,1839
Duke of Clarence,Aggleton Thomas,Pancras Place Somerstown London ,51.5334728,-0.1286371,1839
Cock,Piper William,17 Lichfield Street soho London ,51.512775,-0.1285049,1839
Crown,Davies John,4 Cranbourn Passage  London ,51.5113223,-0.1284545,1839
Crown,Lough Robert,40 Tufton Street Westminster London ,51.4964066,-0.128444,1839
Marquess of Hastings,Hobbs William,42 Ossulton Street Somerstown London ,51.5295086,-0.1284168,1839
Hand & Crown,Gardener Thos,9 Church Street St Giles London ,51.5153155,-0.1283988,1839
Robin Hood,Mason James,26 Church Street St Giles London ,51.5153155,-0.1283988,1839
Duke of Clarence,Loddy & Jones,34 Charing Cross Road  London ,51.5112462,-0.1283825,1839
Smiths Arms,Randall Geo,93 New Park Street Borough London ,51.4465262,-0.1283488,1839
Fishmongers Arms,Weston Thomas Richards,West Street Soho London ,51.5130702,-0.1282635,1839
Shades,Wiltshire John,28 Charing Cross  London ,51.5108242,-0.1282105,1839
Greyhound,Marshall Edw,7 New Compton Street Soho London ,51.5146187,-0.1280728,1839
Tavistock Arms,Maslin Wm,11 Tavistock Place Tavistock Square London ,51.5261719,-0.1280374,1839
Fleece,Ramford Samuel Howard,30 great George Street  London ,51.5011509,-0.1280361,1839
Two Brewers,Fowler Betty,10 Little Tufton Street  London ,51.4959631,-0.1279679,1839
Green Man,Rogers Wm,1 Little George Street Westminster London ,51.5007184,-0.1278973,1839
Horse Shoe,Bone William,Little George Street Westminster London ,51.5007184,-0.1278973,1839
Jolly Miller,Peacock Benjamin,51 Millbank Street Westminster London ,51.4895384,-0.1278841,1839
George & Dragon,Francis George,Vauxhall Row Kennington London ,51.4879863,-0.1278327,1839
White Lion,Moulder John,Vauxhall Row Lambeth London ,51.4879863,-0.1278327,1839
Admiral Vernon,Rose John B,Upper Ground Street Blackfriars London ,51.5073509,-0.1277583,1839
Dog & Duck,Phillips Unity,Princes Street Redlion Square London ,51.5073509,-0.1277583,1839
Elder Tree,Connor Esther,Elder Street Spiatl Square London ,51.5073509,-0.1277583,1839
Feathers,Byers George,Kensington Gravel Pits  London ,51.5073509,-0.1277583,1839
Fish,Andrews Jno,12 1/2 Fisher Street Redlion Square London ,51.5073509,-0.1277583,1839
General Wolfe,Nesling Timothy,8 Little Grays Inn Lane  London ,51.5073509,-0.1277583,1839
George,Brown Sarah,17 Carter Street Spitalfields London ,51.5073509,-0.1277583,1839
George,Elliott Thomas,43 Thomas Street Horselydown London ,51.5073509,-0.1277583,1839
George,Emmerson Johnm Blackwell,  London ,51.5073509,-0.1277583,1839
George,Schmonsees John,30 Pelham Street Spitalfields London ,51.5073509,-0.1277583,1839
George,Thompson Peter,9 Great Queen Street Lincolns Inn London ,51.5073509,-0.1277583,1839
Halfway House,Millis John Robert,Webber Street New Cut London ,51.5073509,-0.1277583,1839
Hare,Davies John,110 Brick Lane Spitalfields London ,51.5073509,-0.1277583,1839
Hare & Hounds,Banks Joseph,23 Buckridge Street Bloomsbury London ,51.5073509,-0.1277583,1839
Harp,Savory Henry,26 New Church Street Portman Market London ,51.5073509,-0.1277583,1839
Harrisons Arms,Wood Francis,28 Harriosn Street Grays Inn Road London ,51.5073509,-0.1277583,1839
Jamaica Tavern,Brewster R,Jamaica Level  London ,51.5073509,-0.1277583,1839
John O'Gaunt,Tucker Peter,52 Duke Street Lincolns Inn London ,51.5073509,-0.1277583,1839
Jolly Miller,Richardson William Beecham,Webber Row New Cut London ,51.5073509,-0.1277583,1839
Jolly Weavers,Meguin Charlotte,Wheeler Street Spitalfields London ,51.5073509,-0.1277583,1839
Lamb,Pardy William & Geo,Leadenhall Skin Market  London ,51.5073509,-0.1277583,1839
Laurel Tree,South Sophia,185 Brcik Lane Spitalfields London ,51.5073509,-0.1277583,1839
Lion and Lamb,Rogerson G W,14 Margaret Street Spafields London ,51.5073509,-0.1277583,1839
Magpie and Punch Bowl,Robinson Jacob,58 Bishopsgate Street within  London ,51.5073509,-0.1277583,1839
Marlborough Head,Field Geo,97 Bishopsgate Street within  London ,51.5073509,-0.1277583,1839
Marquess of Granby,Beckett John William,22 Pump Yard Ratcliff Cross London ,51.5073509,-0.1277583,1839
Marquess of Wellington,Pool Wm,16 New Street Horselydown London ,51.5073509,-0.1277583,1839
Newport Arms,Stebbing Henry James,Princes Row Newport Market London ,51.5073509,-0.1277583,1839
Northumberland Arms,Cordell Thomas,44 Fashion Street Spitalfields London ,51.5073509,-0.1277583,1839
Old Black Jack,Griggs Ann,11 Portsmouth Street Lincolns Inn fields London ,51.5073509,-0.1277583,1839
Old Catherine Wheel,Gedded John,40 Bishopsgate Street without  London ,51.5073509,-0.1277583,1839
Old Crown,Johnston Alexander,Brick Lane Spitalfields London ,51.5073509,-0.1277583,1839
Old Crown,Hopton James,7 Crown Street St Giles London ,51.5073509,-0.1277583,1839
Peacock,Webb Nicholas Walter,54 Holland Street Blackfriars London ,51.5073509,-0.1277583,1839
Phoenix,Dowling Jas,Phoenix Place Ratcliff Cross London ,51.5073509,-0.1277583,1839
Pied Bull,Holison Edward,17 Bury Street Bloomsbury London ,51.5073509,-0.1277583,1839
Plough,Bennett Thos,26 Museum Street Bloomsbury London ,51.5073509,-0.1277583,1839
Queens Head,Chaney Chas,1 King Street Rotherhithe Wall London ,51.5073509,-0.1277583,1839
Queens Head,Dennison A,Fashion Street Spitalfields London ,51.5073509,-0.1277583,1839
Queens Head,Hanstead Thos,Little Charlotte Street Blackfriars London ,51.5073509,-0.1277583,1839
Queens Head,Ridge John,73 Great Queen Street Lincolns Inn London ,51.5073509,-0.1277583,1839
Queens Head,Watts henry,5 Acton Street Grays Inn Road London ,51.5073509,-0.1277583,1839
Queens Head,Whittington E,3 Water Lane Blackfriars London ,51.5073509,-0.1277583,1839
Queens Head,Winterbottom Thomas,17 Freeschool Lane Borough London ,51.5073509,-0.1277583,1839
Railway,Leith John,side of Greenwich Railway  London ,51.5073509,-0.1277583,1839
Red Lion,Bentall John,20 Redlion Street Spitalfields London ,51.5073509,-0.1277583,1839
Red Lion,Drewry Jas,44 Cowcross Street Smithfield London ,51.5073509,-0.1277583,1839
Red Lion,Goodchild R,27 Upper King Street Bloomsbury London ,51.5073509,-0.1277583,1839
Red Lion,Hardy Jos,11 Upper Queens Buildings Brompton London ,51.5073509,-0.1277583,1839
Red Lion,Hayward Samuel,34 Spleer Street Spitalfields London ,51.5073509,-0.1277583,1839
Red Lion,Hicks James,Pearl Row Magdalen London ,51.5073509,-0.1277583,1839
St Anns Coffee House,Gurney James,30 Shoemaker Row City London ,51.5073509,-0.1277583,1839
St Martin,Jones Evan,13 Duke Street Adelphi London ,51.5073509,-0.1277583,1839
Salutation Tap,Ket Charles,3 1/2 Rose Street Newgate Market London ,51.5073509,-0.1277583,1839
Seckford Arms,Mawe William,Seckford Street  London ,51.5073509,-0.1277583,1839
Seven Stars,Fraser William,Brick Lane Spitalfields London ,51.5073509,-0.1277583,1839
Tackle Porters,Jones George,Coopers Row Crutchedfriars London ,51.5073509,-0.1277583,1839
Ten Bells,Waldron Edward,34 Church Street Spitalfields London ,51.5073509,-0.1277583,1839
Thistle and Crown,Haines Johnm 39 st Martins Lane,  London ,51.5073509,-0.1277583,1839
Three Crowns,Howard Chas,Worth Street North Spitalfields London ,51.5073509,-0.1277583,1839
Unicorn,Ramsey Henry,Unicorn Street Blackfriars London ,51.5073509,-0.1277583,1839
Union,Carr John,Union Terrace Bagnigge Wells London ,51.5073509,-0.1277583,1839
Union,Church Chas,15 Gun Street Spitalfields London ,51.5073509,-0.1277583,1839
Victory,Dallor John,16 Newnham Street Edgeware Road London ,51.5073509,-0.1277583,1839
Watermans Arms,Glanvile John,Pickleherring Street  London ,51.5073509,-0.1277583,1839
Weavers Arms,Butfoy Abraham,29 Browns Lane Spitalfields London ,51.5073509,-0.1277583,1839
Weavers Arms,Carter John,Pelham Street Spitalfields London ,51.5073509,-0.1277583,1839
Weavers Arms,Pettit Richard,1 Green Place Globe Fields London ,51.5073509,-0.1277583,1839
Weavers Arms,Thorpe Thos,Back Church Lane St Georges London ,51.5073509,-0.1277583,1839
White Bear,Wright John,18 Princes Street Redlion Sqaure London ,51.5073509,-0.1277583,1839
Wonder,Morgan Thomas,112 Bishopsgate without  London ,51.5073509,-0.1277583,1839
Yorkshire Grey,Cowley Henry,30 Hart Street Bloomsbury London ,51.5073509,-0.1277583,1839
Yorkshire Grey,Tapp Edw,3 Great Whitelion Street Spitalfields London ,51.5073509,-0.1277583,1839
Alfreds Arms,Osborne Thomas,38 Union Street Spitalfields London,51.5073509,-0.1277583,1839
Angel,Ramsay John,61 High Street Bloomsbury London ,51.5073509,-0.1277583,1839
Angel,Wilder Philip,1 Webber Street New Cut London ,51.5073509,-0.1277583,1839
Angel and Crown,Vickress Thomas,6 Crispin Street Spitalfields London ,51.5073509,-0.1277583,1839
Antelope,Dorman Henry,1 Upper Coleshill Street  London ,51.5073509,-0.1277583,1839
Archer,Reeve Thomas,20 Newton Street St Giles London ,51.5073509,-0.1277583,1839
Bedford Head,Oliver Thomas,5 Upper King Street Bloomsbury London ,51.5073509,-0.1277583,1839
Bell,Reeve J W,2 Bell Yard Newgate Market London ,51.5073509,-0.1277583,1839
Belle Sauvage tap,Edwards Thomas,Belle Sauvage Road  London ,51.5073509,-0.1277583,1839
Ben Jonson,Busher J,Pelham Street Spitalfields London ,51.5073509,-0.1277583,1839
Black Lion,Cubitt Thomas,Castle Street Bloomsbury London ,51.5073509,-0.1277583,1839
Black Lion,Pearce Henry,6 Bishopsgate Street within  London ,51.5073509,-0.1277583,1839
Black Raven,Simpson Morton,135 Bishopsgate without  London ,51.5073509,-0.1277583,1839
Blue Coat Boy,Corry William,Dorset street Spitalfields London ,51.5073509,-0.1277583,1839
Blue Last & Sugar Loaf,Bratt William,Water lane Blackfriars London ,51.5073509,-0.1277583,1839
Blue Lion,Farren James & Co. 99 Holborn Hill,  London ,51.5073509,-0.1277583,1839
Blue Posts,Boorer George,7 Holborn bars  London ,51.5073509,-0.1277583,1839
Blue Posts,Stroud James,4 Fulwoods rents  London ,51.5073509,-0.1277583,1839
Bricklayers Arms,Scott Robert,12 Earl street Blackfriars London ,51.5073509,-0.1277583,1839
Britannia,Spratt William,Back road St. Georges E. London ,51.5073509,-0.1277583,1839
British Oak,Barker Arthur,Baltie street St Lukes London ,51.5073509,-0.1277583,1839
British Sailor,Sanders John,47 New Church street Portman market London ,51.5073509,-0.1277583,1839
Brown Bear,Codgbrook Thos.,63 Broad street Bloomsbury London ,51.5073509,-0.1277583,1839
Buffalo,Pool Robert,Brett’s buildings  London ,51.5073509,-0.1277583,1839
Bull and Mouth,Larcombe William,31 Hart street Bloomsbury London ,51.5073509,-0.1277583,1839
Bulls Head,Martlitt John,16 Peter street Cowcross London ,51.5073509,-0.1277583,1839
Castle,Chapman Wm.,10 Castle street Bloomsbry London ,51.5073509,-0.1277583,1839
Castle,Ford Edwd.,3 Portugal street Lincoln’s Inn London ,51.5073509,-0.1277583,1839
Castle,Ketty Susannah,Quaker street Spitalfields London ,51.5073509,-0.1277583,1839
Catherine Wheel,Burton Joseph,43 Bishopsgate without  London ,51.5073509,-0.1277583,1839
City Arms,Float William. 4 Popes Head Alley,  London ,51.5073509,-0.1277583,1839
Coach & Horses,Lemon William,Bear Yard Lincolns Inn London ,51.5073509,-0.1277583,1839
Coopers Arms,Cutts Chas,Brunswick Street Blackwall London ,51.5073509,-0.1277583,1839
Crown,Bell Edward,2 Thorney Street Bloomsbury London ,51.5073509,-0.1277583,1839
Crown,Campbell James,22 Butcherhall Lane  London ,51.5073509,-0.1277583,1839
Crown,Foxall Chas,16 Museum Street Bloomsbury London ,51.5073509,-0.1277583,1839
Crown,Hill Henry,9 John Street Spitalfields London ,51.5073509,-0.1277583,1839
Crown,Mousley Jno,Butlers Buildings Smithfield London ,51.5073509,-0.1277583,1839
Crown,Pickles Thomas,6 Lad Lane City London ,51.5073509,-0.1277583,1839
